[
  {
    "id": "sainsburys-0002",
    "name": "Stratford",
    "address": "38-40 The Mall, The Stratford Centre",
    "city": "London",
    "postcode": "E15 1XE",
    "latitude": 51.54189,
    "longitude": -0.00106,
    "status": "open",
    "openingHours": "Mon-Thu: 06:00-22:00, Fri: 07:00-22:00, Sat: 11:00-17:00, Sun: 06:00-22:00",
    "phone": "020 8534 7597",
    "brand": "sainsburys"
  },
  {
    "id": "sainsburys-0003",
    "name": "Pepper Hill",
    "address": "Wingfield Bank, Northfleet",
    "city": "Gravesend",
    "postcode": "DA11 8JH",
    "latitude": 51.43021,
    "longitude": 0.33285,
    "status": "open",
    "openingHours": "Mon-Thu: 08:00-22:00, Fri: 07:30-22:00, Sat: 10:00-16:00, Sun: 08:00-22:00",
    "phone": "01474 569318",
    "brand": "sainsburys"
  },
  {
    "id": "sainsburys-0004",
    "name": "Chertsey",
    "address": "1 The Sainsbury Centre, Guildford Street",
    "city": "Chertsey",
    "postcode": "KT16 9AG",
    "latitude": 51.39127,
    "longitude": -0.50351,
    "status": "open",
    "openingHours": "Mon-Fri: 07:00-21:00, Sat: 10:00-16:00, Sun: 07:00-21:00",
    "phone": "01932 566503",
    "brand": "sainsburys"
  },
  {
    "id": "sainsburys-0007",
    "name": "Eltham",
    "address": "1a Philipot Path",
    "city": "London",
    "postcode": "SE9 5DL",
    "latitude": 51.45,
    "longitude": 0.05737,
    "status": "open",
    "openingHours": "Mon-Fri: 07:00-22:00, Sat: 10:00-16:00, Sun: 07:00-22:00",
    "phone": "020 8859 8700",
    "brand": "sainsburys"
  },
  {
    "id": "sainsburys-0009",
    "name": "Pimlico",
    "address": "99 Wilton Road",
    "city": "London",
    "postcode": "SW1V 1DT",
    "latitude": 51.49302,
    "longitude": -0.14121,
    "status": "open",
    "openingHours": "Mon-Thu: 07:00-23:00, Fri: 07:00-22:00, Sat: 11:00-17:00, Sun: 07:00-23:00",
    "phone": "020 7931 8988",
    "brand": "sainsburys"
  },
  {
    "id": "sainsburys-0011",
    "name": "Lee Grn",
    "address": "14 Burnt Ash Road",
    "city": "London",
    "postcode": "SE12 8PZ",
    "latitude": 51.45582,
    "longitude": 0.01042,
    "status": "open",
    "openingHours": "Mon-Fri: 07:00-22:00, Sat: 11:00-17:00, Sun: 07:00-22:00",
    "phone": "020 8318 5313",
    "brand": "sainsburys"
  },
  {
    "id": "sainsburys-0014",
    "name": "East Ham",
    "address": "2-10 Myrtle Road",
    "city": "London",
    "postcode": "E6 1HU",
    "latitude": 51.53406,
    "longitude": 0.05238,
    "status": "open",
    "openingHours": "Mon-Fri: 08:00-20:00, Sat: 11:00-17:00, Sun: 08:00-20:00",
    "phone": "020 8503 4997",
    "brand": "sainsburys"
  },
  {
    "id": "sainsburys-0016",
    "name": "Wimbledon",
    "address": "8-12 Worple Road",
    "city": "London",
    "postcode": "SW19 4DD",
    "latitude": 51.421,
    "longitude": -0.20855,
    "status": "open",
    "openingHours": "Mon-Fri: 07:00-23:00, Sat: 11:00-17:00, Sun: 07:00-23:00",
    "phone": "020 8946 2210",
    "brand": "sainsburys"
  },
  {
    "id": "sainsburys-0017",
    "name": "Crayford",
    "address": "Stadium Way",
    "city": "Dartford",
    "postcode": "DA1 4HW",
    "latitude": 51.44917,
    "longitude": 0.17882,
    "status": "open",
    "openingHours": "Mon-Fri: 06:00-22:00, Sat: 10:00-16:00, Sun: 06:00-22:00",
    "phone": "01322 529254",
    "brand": "sainsburys"
  },
  {
    "id": "sainsburys-0019",
    "name": "Locksbottom",
    "address": "Pallant Way",
    "city": "Orpington",
    "postcode": "BR6 8NZ",
    "latitude": 51.3661,
    "longitude": 0.05546,
    "status": "open",
    "openingHours": "Mon-Fri: 07:00-22:00, Sat: 10:00-16:00, Sun: 07:00-22:00",
    "phone": "01689 861334",
    "brand": "sainsburys"
  },
  {
    "id": "sainsburys-0023",
    "name": "Warlingham",
    "address": "631 Limpsfield Road",
    "city": "Warlingham",
    "postcode": "CR6 9DY",
    "latitude": 51.30755,
    "longitude": -0.04328,
    "status": "open",
    "openingHours": "Mon-Fri: 07:00-22:00, Sat: 10:00-16:00, Sun: 07:00-22:00",
    "phone": "01883 625036",
    "brand": "sainsburys"
  },
  {
    "id": "sainsburys-0024",
    "name": "Streatham Common",
    "address": "480 Streatham High Road",
    "city": "London",
    "postcode": "SW16 3PY",
    "latitude": 51.41949,
    "longitude": -0.12938,
    "status": "open",
    "openingHours": "Mon-Thu: 07:00-23:00, Fri: 07:00-22:00, Sat: 11:00-17:00, Sun: 07:00-23:00",
    "phone": "020 8764 0435",
    "brand": "sainsburys"
  },
  {
    "id": "sainsburys-0145",
    "name": "Crayford PFS",
    "address": "Stadium Way",
    "city": "Dartford",
    "postcode": "DA1 4HW",
    "latitude": 51.45015,
    "longitude": 0.17777,
    "status": "open",
    "openingHours": "Mon-Fri: 06:00-23:00, Sat: 09:00-19:00, Sun: 06:00-23:00",
    "phone": "03300137899",
    "brand": "sainsburys"
  },
  {
    "id": "sainsburys-0157",
    "name": "Purley Way PFS",
    "address": "Drury Crescent",
    "city": "Croydon",
    "postcode": "CR0 4XT",
    "latitude": 51.37517,
    "longitude": -0.11752,
    "status": "open",
    "openingHours": "Mon-Fri: 07:00-22:00, Sat: 10:00-22:00, Sun: 07:00-22:00",
    "phone": "03300138048",
    "brand": "sainsburys"
  },
  {
    "id": "sainsburys-0416",
    "name": "West Wickham",
    "address": "76 Station Road",
    "city": "West Wickham",
    "postcode": "BR4 0PU",
    "latitude": 51.37681,
    "longitude": -0.01496,
    "status": "open",
    "openingHours": "Mon-Fri: 07:00-22:00, Sat: 10:00-16:00, Sun: 07:00-22:00",
    "phone": "020 8777 3759",
    "brand": "sainsburys"
  },
  {
    "id": "sainsburys-0420",
    "name": "Winchmore Hill",
    "address": "681 Green Lanes",
    "city": "London",
    "postcode": "N21 3RS",
    "latitude": 51.62942,
    "longitude": -0.09845,
    "status": "open",
    "openingHours": "Mon-Thu: 07:30-22:00, Fri: 07:00-22:00, Sat: 10:00-16:00, Sun: 07:30-22:00",
    "phone": "020 8364 1211",
    "brand": "sainsburys"
  },
  {
    "id": "sainsburys-0433",
    "name": "Low Hall",
    "address": "11 Walthamstow Avenue",
    "city": "London",
    "postcode": "E4 8ST",
    "latitude": 51.60425,
    "longitude": -0.02071,
    "status": "open",
    "openingHours": "Mon-Fri: 07:00-23:00, Sat: 10:30-16:30, Sun: 07:00-23:00",
    "phone": "020 8523 2617",
    "brand": "sainsburys"
  },
  {
    "id": "sainsburys-0548",
    "name": "Richmond",
    "address": "Lower Richmond Road",
    "city": "Richmond",
    "postcode": "TW9 4LT",
    "latitude": 51.46658,
    "longitude": -0.28641,
    "status": "open",
    "openingHours": "Mon-Fri: 07:00-23:00, Sat: 10:00-16:00, Sun: 07:00-23:00",
    "phone": "020 8876 9554",
    "brand": "sainsburys"
  },
  {
    "id": "sainsburys-0563",
    "name": "Beckton PFS",
    "address": "1 Claps Gate Lane",
    "city": "London",
    "postcode": "E6 6JF",
    "latitude": 51.52161,
    "longitude": 0.0692,
    "status": "open",
    "openingHours": "Mon-Sun: 06:00-23:00",
    "phone": "03300137845",
    "brand": "sainsburys"
  },
  {
    "id": "sainsburys-0565",
    "name": "Sydenham PFS",
    "address": "Southend Lane",
    "city": "London",
    "postcode": "SE26 4PU",
    "latitude": 51.42891,
    "longitude": -0.03318,
    "status": "open",
    "openingHours": "Mon-Fri: 07:00-23:59, Sat: 07:00-23:00, Sun: 07:00-23:59",
    "phone": "03300138091",
    "brand": "sainsburys"
  },
  {
    "id": "sainsburys-0566",
    "name": "Merton",
    "address": "1 Merton High Street",
    "city": "London",
    "postcode": "SW19 1DD",
    "latitude": 51.41512,
    "longitude": -0.18154,
    "status": "open",
    "openingHours": "Mon-Fri: 07:00-23:00, Sat: 11:00-17:00, Sun: 07:00-23:00",
    "phone": "0203 1267310",
    "brand": "sainsburys"
  },
  {
    "id": "sainsburys-0569",
    "name": "Beckton",
    "address": "1 Claps Gate Lane",
    "city": "London",
    "postcode": "E6 6JF",
    "latitude": 51.52137,
    "longitude": 0.06601,
    "status": "open",
    "openingHours": "Mon-Fri: 08:00-23:00, Sat: 11:00-17:00, Sun: 08:00-23:00",
    "phone": "0203 1267390",
    "brand": "sainsburys"
  },
  {
    "id": "sainsburys-1015",
    "name": "Hoddesdon PFS",
    "address": "Brewery Road",
    "city": "Hoddesdon",
    "postcode": "EN11 8HF",
    "latitude": 51.7614,
    "longitude": -0.00823,
    "status": "open",
    "openingHours": "Mon-Sun: 06:00-22:00",
    "phone": "03300137966",
    "brand": "sainsburys"
  },
  {
    "id": "sainsburys-1507",
    "name": "Crystal Palace PFS",
    "address": "120-122 Whitehorse Lane",
    "city": "London",
    "postcode": "SE25 6XB",
    "latitude": 51.39881,
    "longitude": -0.0878,
    "status": "open",
    "openingHours": "Mon-Sun: 06:00-23:00",
    "phone": "03300137900",
    "brand": "sainsburys"
  },
  {
    "id": "sainsburys-1517",
    "name": "Lwr Richmond Rd PFS",
    "address": "95-105 Lower Richmond Road",
    "city": "London",
    "postcode": "SW15 1EU",
    "latitude": 51.46737,
    "longitude": -0.22067,
    "status": "open",
    "openingHours": "Mon-Sun: 00:00-23:59",
    "phone": "03300138004",
    "brand": "sainsburys"
  },
  {
    "id": "sainsburys-1525",
    "name": "Balham Ntgle Lne PFS",
    "address": "39 Nightingale Lane",
    "city": "London",
    "postcode": "SW12 8SY",
    "latitude": 51.45193,
    "longitude": -0.15295,
    "status": "open",
    "openingHours": "Mon-Thu: 07:00-23:00, Fri-Sat: 08:00-22:00, Sun: 07:00-23:00",
    "phone": "03300137835",
    "brand": "sainsburys"
  },
  {
    "id": "sainsburys-2084",
    "name": "Willesden Grn",
    "address": "High Road",
    "city": "London",
    "postcode": "NW10 2TD",
    "latitude": 51.54681,
    "longitude": -0.22547,
    "status": "open",
    "openingHours": "Mon-Fri: 08:00-22:00, Sat: 11:00-17:00, Sun: 08:00-22:00",
    "phone": "020 8451 3067",
    "brand": "sainsburys"
  },
  {
    "id": "sainsburys-2499",
    "name": "Elephant and Castle",
    "address": "40 New Kent Road",
    "city": "London",
    "postcode": "SE1 6TJ",
    "latitude": 51.4947,
    "longitude": -0.09768,
    "status": "open",
    "openingHours": "Mon-Fri: 07:00-23:00, Sat: 11:00-17:00, Sun: 07:00-23:00",
    "phone": "0203 1266825",
    "brand": "sainsburys"
  },
  {
    "id": "sainsburys-2625",
    "name": "Charlton Riverside",
    "address": "Charlton Riverside Place, 7-11 Gallions Road",
    "city": "London",
    "postcode": "SE7 7FA",
    "latitude": 51.48861,
    "longitude": 0.02618,
    "status": "open",
    "openingHours": "Mon-Fri: 07:00-23:00, Sat: 11:00-17:00, Sun: 07:00-23:00",
    "phone": "0203 1267410",
    "brand": "sainsburys"
  },
  {
    "id": "sainsburys-2658",
    "name": "Fulham Wharf",
    "address": "27 Townmead Road, Fulham",
    "city": "London",
    "postcode": "SW6 2GD",
    "latitude": 51.46715,
    "longitude": -0.18708,
    "status": "open",
    "openingHours": "Mon-Fri: 07:00-22:00, Sat: 11:00-17:00, Sun: 07:00-22:00",
    "phone": "0203 1266840",
    "brand": "sainsburys"
  },
  {
    "id": "sainsburys-2663",
    "name": "Walton on Thames",
    "address": "53 New Zealand Avenue",
    "city": "Walton-On-Thames",
    "postcode": "KT12 1AD",
    "latitude": 51.38486,
    "longitude": -0.42193,
    "status": "open",
    "openingHours": "Mon-Fri: 07:00-22:00, Sat: 11:00-17:00, Sun: 07:00-22:00",
    "phone": "01932 223689",
    "brand": "sainsburys"
  },
  {
    "id": "sainsburys-2665",
    "name": "Nine Elms",
    "address": "62 Wandsworth Road",
    "city": "London",
    "postcode": "SW8 2LF",
    "latitude": 51.48139,
    "longitude": -0.12808,
    "status": "open",
    "openingHours": "Mon-Fri: 07:00-23:00, Sat: 11:00-17:00, Sun: 07:00-23:00",
    "phone": "0203 1266826",
    "brand": "sainsburys"
  },
  {
    "id": "sainsburys-4159",
    "name": "Brxbne High Rd Loc Local",
    "address": "55 - 59 High Road, Broxbourne",
    "city": "Hertfordshire",
    "postcode": "EN10 7HX",
    "latitude": 51.74806,
    "longitude": -0.01865,
    "status": "open",
    "openingHours": "Mon-Sun: 07:00-23:00",
    "phone": "03300137083",
    "brand": "sainsburys"
  },
  {
    "id": "sainsburys-4164",
    "name": "Sheldon Square Loc Local",
    "address": "12a Sheldon Square",
    "city": "London",
    "postcode": "W2 6EZ",
    "latitude": 51.51953,
    "longitude": -0.18035,
    "status": "open",
    "openingHours": "Mon-Thu: 07:00-22:00, Fri-Sat: 07:00-21:00, Sun: 07:00-22:00",
    "phone": "03300137085",
    "brand": "sainsburys"
  },
  {
    "id": "sainsburys-4165",
    "name": "Lombard St Loc Local",
    "address": "10-15 Lombard Street",
    "city": "London",
    "postcode": "EC3V 9AN",
    "latitude": 51.51265,
    "longitude": -0.08745,
    "status": "open",
    "openingHours": "Mon-Thu: 06:00-21:00, Fri-Sat: 08:00-18:00, Sun: 06:00-21:00",
    "phone": "03300137086",
    "brand": "sainsburys"
  },
  {
    "id": "sainsburys-4171",
    "name": "Shepherds Bush G Loc Local",
    "address": "164 Uxbridge Road",
    "city": "London",
    "postcode": "W12 8AA",
    "latitude": 51.50525,
    "longitude": -0.22401,
    "status": "open",
    "openingHours": "Mon-Sun: 07:00-23:00",
    "phone": "03300137088",
    "brand": "sainsburys"
  },
  {
    "id": "sainsburys-4180",
    "name": "Cobham High St Loc Local",
    "address": "29 - 31 High Street, Cobham",
    "city": "Surrey",
    "postcode": "KT11 3DH",
    "latitude": 51.32803,
    "longitude": -0.41017,
    "status": "open",
    "openingHours": "Mon-Sun: 07:00-23:00",
    "phone": "03300137093",
    "brand": "sainsburys"
  },
  {
    "id": "sainsburys-4182",
    "name": "Hmsmth Gldhwk Rd Loc Local",
    "address": "54 Goldhawk Road",
    "city": "London",
    "postcode": "W12 8HA",
    "latitude": 51.50248,
    "longitude": -0.22711,
    "status": "open",
    "openingHours": "Mon-Sun: 07:00-23:00",
    "phone": "03300137095",
    "brand": "sainsburys"
  },
  {
    "id": "sainsburys-4184",
    "name": "Purley High St Loc Local",
    "address": "6-9 Purley Parade, High Street",
    "city": "Purley",
    "postcode": "CR8 2AB",
    "latitude": 51.33962,
    "longitude": -0.11442,
    "status": "open",
    "openingHours": "Mon-Sun: 07:00-23:00",
    "phone": "03300137096",
    "brand": "sainsburys"
  },
  {
    "id": "sainsburys-4286",
    "name": "Wsmtr The Strand Loc Local",
    "address": "36-37 Strand",
    "city": "London",
    "postcode": "WC2N 5HY",
    "latitude": 51.50888,
    "longitude": -0.12438,
    "status": "open",
    "openingHours": "Mon-Sun: 07:00-23:00",
    "phone": "03300137182",
    "brand": "sainsburys"
  },
  {
    "id": "sainsburys-4287",
    "name": "Hornch Suttns Ln Loc Local",
    "address": "Ground Floor, 2C Suttons Lane, Hornchurch",
    "city": "London",
    "postcode": "RM12 6RJ",
    "latitude": 51.55197,
    "longitude": 0.2188,
    "status": "open",
    "openingHours": "Mon-Sun: 07:00-23:00",
    "phone": "03300137183",
    "brand": "sainsburys"
  },
  {
    "id": "sainsburys-4289",
    "name": "Ckfsts Hddn Ct Loc Local",
    "address": "2-4 Heddon Court Parade, Cockfosters Road",
    "city": "Barnet",
    "postcode": "EN4 0DB",
    "latitude": 51.64819,
    "longitude": -0.14787,
    "status": "open",
    "openingHours": "Mon-Sun: 07:00-22:00",
    "phone": "03300137185",
    "brand": "sainsburys"
  },
  {
    "id": "sainsburys-4290",
    "name": "Hrngy Wst Grn Rd Loc Local",
    "address": "333-337 West Green Road",
    "city": "London",
    "postcode": "N15 3PB",
    "latitude": 51.58599,
    "longitude": -0.09226,
    "status": "open",
    "openingHours": "Mon-Sun: 07:00-23:00",
    "phone": "03300137186",
    "brand": "sainsburys"
  },
  {
    "id": "sainsburys-4291",
    "name": "Islgn Mercers Rd Loc Local",
    "address": "465 Holloway Road",
    "city": "London",
    "postcode": "N7 6BQ",
    "latitude": 51.56012,
    "longitude": -0.12341,
    "status": "open",
    "openingHours": "Mon-Sun: 07:00-23:00",
    "phone": "03300137187",
    "brand": "sainsburys"
  },
  {
    "id": "sainsburys-4292",
    "name": "Tnhm Lordship Ln Loc Local",
    "address": "421 Lordship Lane",
    "city": "London",
    "postcode": "N17 6AG",
    "latitude": 51.59783,
    "longitude": -0.09172,
    "status": "open",
    "openingHours": "Mon-Sun: 07:00-23:00",
    "phone": "03300137188",
    "brand": "sainsburys"
  },
  {
    "id": "sainsburys-4293",
    "name": "Twrhmts Mile End Loc Local",
    "address": "420 Mile End Road",
    "city": "London",
    "postcode": "E1 4PE",
    "latitude": 51.52282,
    "longitude": -0.03944,
    "status": "open",
    "openingHours": "Mon-Sun: 07:00-23:59",
    "phone": "03300137189",
    "brand": "sainsburys"
  },
  {
    "id": "sainsburys-4295",
    "name": "Crydn High St Loc Local",
    "address": "59 High Street",
    "city": "Croydon",
    "postcode": "CR0 1QD",
    "latitude": 51.37177,
    "longitude": -0.1003,
    "status": "open",
    "openingHours": "Mon-Sun: 07:00-23:00",
    "phone": "03300137190",
    "brand": "sainsburys"
  },
  {
    "id": "sainsburys-4297",
    "name": "Lwshm Sdnhm Rd Loc Local",
    "address": "313-315 Kirkdale, Sydenham",
    "city": "London",
    "postcode": "SE26 4QB",
    "latitude": 51.42687,
    "longitude": -0.05524,
    "status": "open",
    "openingHours": "Mon-Sun: 07:00-23:00",
    "phone": "03300137191",
    "brand": "sainsburys"
  },
  {
    "id": "sainsburys-4299",
    "name": "Tnhm Svn Sts Stn Loc Local",
    "address": "3-7 West Green Road",
    "city": "London",
    "postcode": "N15 5BX",
    "latitude": 51.58383,
    "longitude": -0.07318,
    "status": "open",
    "openingHours": "Mon-Sun: 07:00-23:00",
    "phone": "03300137193",
    "brand": "sainsburys"
  },
  {
    "id": "sainsburys-4300",
    "name": "Ftchm Cobham Rd Loc Local",
    "address": "246a Cobham Road, Fetcham",
    "city": "Leatherhead",
    "postcode": "KT22 9JQ",
    "latitude": 51.29656,
    "longitude": -0.35599,
    "status": "open",
    "openingHours": "Mon-Sun: 07:00-23:00",
    "phone": "03300137194",
    "brand": "sainsburys"
  },
  {
    "id": "sainsburys-4301",
    "name": "Hayes Cldhrbr Ln Loc Local",
    "address": "Coldharbour Lane",
    "city": "Hayes",
    "postcode": "UB3 3HG",
    "latitude": 51.5114,
    "longitude": -0.41258,
    "status": "open",
    "openingHours": "Mon-Sun: 07:00-23:00",
    "phone": "03300137195",
    "brand": "sainsburys"
  },
  {
    "id": "sainsburys-4303",
    "name": "Blmbry Brnswk Ct Loc Local",
    "address": "Unit 5, Brunswick Centre",
    "city": "London",
    "postcode": "WC1N 1BS",
    "latitude": 51.52378,
    "longitude": -0.12317,
    "status": "open",
    "openingHours": "Mon-Sun: 07:00-23:00",
    "phone": "03300137196",
    "brand": "sainsburys"
  },
  {
    "id": "sainsburys-4308",
    "name": "Crstn Stly Pk Rd Loc Local",
    "address": "132 Stanley Park Road",
    "city": "Carshalton",
    "postcode": "SM5 3JG",
    "latitude": 51.3551,
    "longitude": -0.16196,
    "status": "open",
    "openingHours": "Mon-Sun: 07:00-23:00",
    "phone": "03300137199",
    "brand": "sainsburys"
  },
  {
    "id": "sainsburys-4408",
    "name": "Hsmith Nth End C Loc Local",
    "address": "3 North End Crescent",
    "city": "London",
    "postcode": "W14 8TG",
    "latitude": 51.49223,
    "longitude": -0.20725,
    "status": "open",
    "openingHours": "Mon-Sun: 07:00-23:00",
    "phone": "03300137282",
    "brand": "sainsburys"
  },
  {
    "id": "sainsburys-4411",
    "name": "Ealng Nthfld Ave Loc Local",
    "address": "227 Northfield Avenue",
    "city": "London",
    "postcode": "W13 9QU",
    "latitude": 51.50006,
    "longitude": -0.3149,
    "status": "open",
    "openingHours": "Mon-Sun: 07:00-23:00",
    "phone": "03300137285",
    "brand": "sainsburys"
  },
  {
    "id": "sainsburys-4412",
    "name": "Enfield Ldn Rd Loc Local",
    "address": "1-2 Clock Parade, London Road",
    "city": "Enfield",
    "postcode": "EN2 6JG",
    "latitude": 51.6458,
    "longitude": -0.08051,
    "status": "open",
    "openingHours": "Mon-Fri: 07:00-23:00, Sat: 08:00-20:00, Sun: 07:00-23:00",
    "phone": "03300137286",
    "brand": "sainsburys"
  },
  {
    "id": "sainsburys-4418",
    "name": "Ealing Uxbrdg Rd Loc Local",
    "address": "437b Uxbridge Road",
    "city": "London",
    "postcode": "W5 3NT",
    "latitude": 51.50998,
    "longitude": -0.28753,
    "status": "open",
    "openingHours": "Mon-Sun: 07:00-23:00",
    "phone": "03300137290",
    "brand": "sainsburys"
  },
  {
    "id": "sainsburys-4420",
    "name": "Southfields Stn Loc Local",
    "address": "260-262 Wimbledon Park Road",
    "city": "London",
    "postcode": "SW19 6NL",
    "latitude": 51.44454,
    "longitude": -0.20716,
    "status": "open",
    "openingHours": "Mon-Fri: 07:00-23:00, Sat: 11:00-17:00, Sun: 07:00-23:00",
    "phone": "03300137292",
    "brand": "sainsburys"
  },
  {
    "id": "sainsburys-4426",
    "name": "Lwshm Grv Pk Stn Loc Local",
    "address": "342 Baring Road",
    "city": "London",
    "postcode": "SE12 0DU",
    "latitude": 51.43173,
    "longitude": 0.02104,
    "status": "open",
    "openingHours": "Mon-Sun: 06:00-23:00",
    "phone": "03300137296",
    "brand": "sainsburys"
  },
  {
    "id": "sainsburys-4428",
    "name": "Charlton Station Loc Local",
    "address": "33 - 37 Charlton Church Lane",
    "city": "Charlton",
    "postcode": "SE7 7AG",
    "latitude": 51.48662,
    "longitude": 0.03239,
    "status": "open",
    "openingHours": "Mon-Sun: 07:00-23:00",
    "phone": "03300137298",
    "brand": "sainsburys"
  },
  {
    "id": "sainsburys-4568",
    "name": "Srds Bsh Blmfntn Loc Local",
    "address": "56 Bloemfontein Road, White City",
    "city": "London",
    "postcode": "W12 7FE",
    "latitude": 51.51064,
    "longitude": -0.23521,
    "status": "open",
    "openingHours": "Mon-Sun: 07:00-23:00",
    "phone": "03300137394",
    "brand": "sainsburys"
  },
  {
    "id": "sainsburys-4569",
    "name": "The Cty Blkfrs S Loc Local",
    "address": "30 - 31 New Bridge Street",
    "city": "London",
    "postcode": "EC4V 6BJ",
    "latitude": 51.51244,
    "longitude": -0.10387,
    "status": "open",
    "openingHours": "Mon-Thu: 07:00-23:00, Fri-Sat: 08:00-19:00, Sun: 07:00-23:00",
    "phone": "03300137395",
    "brand": "sainsburys"
  },
  {
    "id": "sainsburys-4571",
    "name": "Hkny Clisold Qtr Loc Local",
    "address": "255 - 259 Green Lanes",
    "city": "London",
    "postcode": "N4 2UX",
    "latitude": 51.5634,
    "longitude": -0.09188,
    "status": "open",
    "openingHours": "Mon-Sun: 07:00-23:00",
    "phone": "03300137397",
    "brand": "sainsburys"
  },
  {
    "id": "sainsburys-4572",
    "name": "Clndle Grahme Pk Loc Local",
    "address": "3 Heath Parade, Colindale",
    "city": "London",
    "postcode": "NW9 5ZN",
    "latitude": 51.59704,
    "longitude": -0.24488,
    "status": "open",
    "openingHours": "Mon-Sun: 07:00-23:00",
    "phone": "0330 013 7398",
    "brand": "sainsburys"
  },
  {
    "id": "sainsburys-4574",
    "name": "Borough Long Lne Loc Local",
    "address": "171 Long Lane",
    "city": "London",
    "postcode": "SE1 4PN",
    "latitude": 51.49949,
    "longitude": -0.08585,
    "status": "open",
    "openingHours": "Mon-Sun: 07:00-23:00",
    "phone": "03300137400",
    "brand": "sainsburys"
  },
  {
    "id": "sainsburys-4743",
    "name": "Sthm Mitcham Lne Loc Local",
    "address": "86 - 88 Mitcham Lane",
    "city": "London",
    "postcode": "SW16 6NR",
    "latitude": 51.42508,
    "longitude": -0.14078,
    "status": "open",
    "openingHours": "Mon-Sun: 07:00-23:00",
    "phone": "03300137493",
    "brand": "sainsburys"
  },
  {
    "id": "sainsburys-4895",
    "name": "Ldn Uppr Rchmond Loc Local",
    "address": "Estate House, 225-231 Upper Richmond Road",
    "city": "London",
    "postcode": "SW15 6SJ",
    "latitude": 51.46192,
    "longitude": -0.22189,
    "status": "open",
    "openingHours": "Mon-Sun: 07:00-23:00",
    "phone": "03300137578",
    "brand": "sainsburys"
  },
  {
    "id": "sainsburys-4916",
    "name": "Harold Hill Loc Local",
    "address": "44 Farnham Road",
    "city": "Romford",
    "postcode": "RM3 8DX",
    "latitude": 51.60606,
    "longitude": 0.21893,
    "status": "open",
    "openingHours": "Mon-Sun: 07:00-22:00",
    "phone": "03300137587",
    "brand": "sainsburys"
  },
  {
    "id": "sainsburys-4917",
    "name": "Wndswrth Old Yrk Loc Local",
    "address": "527-529 Old York Road",
    "city": "London",
    "postcode": "SW18 1TG",
    "latitude": 51.4599,
    "longitude": -0.18873,
    "status": "open",
    "openingHours": "Mon-Fri: 06:30-23:00, Sat: 07:00-23:00, Sun: 06:30-23:00",
    "phone": "03300137588",
    "brand": "sainsburys"
  },
  {
    "id": "sainsburys-4919",
    "name": "Queens Park Loc Local",
    "address": "105-109 Salusbury Road",
    "city": "London",
    "postcode": "NW6 6RG",
    "latitude": 51.53729,
    "longitude": -0.2063,
    "status": "open",
    "openingHours": "Mon-Sun: 07:00-23:00",
    "phone": "03300137590",
    "brand": "sainsburys"
  },
  {
    "id": "sainsburys-4920",
    "name": "Gt Portland St Loc Local",
    "address": "202 Great Portland Street",
    "city": "London",
    "postcode": "W1W 5QQ",
    "latitude": 51.52192,
    "longitude": -0.14334,
    "status": "open",
    "openingHours": "Mon-Sun: 07:00-23:00",
    "phone": "03300137591",
    "brand": "sainsburys"
  },
  {
    "id": "sainsburys-4925",
    "name": "Ldn Askew Road Loc Local",
    "address": "167-181 Askew Road",
    "city": "London",
    "postcode": "W12 9AX",
    "latitude": 51.50175,
    "longitude": -0.24118,
    "status": "open",
    "openingHours": "Mon-Sun: 07:00-23:00",
    "phone": "03300137596",
    "brand": "sainsburys"
  },
  {
    "id": "sainsburys-5065",
    "name": "Hounslow Wst Stn Loc Local",
    "address": "333 Bath Road",
    "city": "Hounslow",
    "postcode": "TW3 3DH",
    "latitude": 51.4731,
    "longitude": -0.3857,
    "status": "open",
    "openingHours": "Mon-Sun: 07:00-23:00",
    "phone": "03300137677",
    "brand": "sainsburys"
  },
  {
    "id": "sainsburys-5067",
    "name": "Camdn Abbey Road Loc Local",
    "address": "206 - 198 Belsize Road",
    "city": "London",
    "postcode": "NW6 4DP",
    "latitude": 51.53966,
    "longitude": -0.18735,
    "status": "open",
    "openingHours": "Mon-Sun: 07:00-22:00",
    "phone": "03300137679",
    "brand": "sainsburys"
  },
  {
    "id": "sainsburys-5069",
    "name": "Leicester Square Loc Local",
    "address": "Unit 5 and 6, 57-63 Charing Cross Road",
    "city": "London",
    "postcode": "WC2H 0NE",
    "latitude": 51.5121,
    "longitude": -0.1288,
    "status": "open",
    "openingHours": "Mon-Fri: 07:00-23:59, Sat: 12:00-18:00, Sun: 07:00-23:59",
    "phone": "03300137681",
    "brand": "sainsburys"
  },
  {
    "id": "sainsburys-5072",
    "name": "Wstr Marble Arch Loc Local",
    "address": "Marble Arch Tower, 1-3 Marble Arch",
    "city": "London",
    "postcode": "W1H 7EJ",
    "latitude": 51.5134,
    "longitude": -0.1595,
    "status": "open",
    "openingHours": "Mon-Sun: 07:00-23:00",
    "phone": "0330 013 7683",
    "brand": "sainsburys"
  },
  {
    "id": "sainsburys-5073",
    "name": "Hackny Wallis Rd Loc Local",
    "address": "75-89 Wallis Road, Hackney Wick",
    "city": "LONDON",
    "postcode": "E9 5LN",
    "latitude": 51.5442,
    "longitude": -0.0236,
    "status": "open",
    "openingHours": "Mon-Sun: 07:00-23:00",
    "phone": "03300137684",
    "brand": "sainsburys"
  },
  {
    "id": "sainsburys-5076",
    "name": "BA HQ Speedbird Way Local",
    "address": "Waterside  Speedbird Way",
    "city": "Uxbridge",
    "postcode": "UB7 0GB",
    "latitude": 51.48543,
    "longitude": -0.48748,
    "status": "open",
    "openingHours": "Mon-Thu: 07:00-18:00, Fri-Sat: 00:00-00:00, Sun: 07:00-18:00",
    "phone": "03300137685",
    "brand": "sainsburys"
  },
  {
    "id": "sainsburys-5084",
    "name": "Shepherds Bush Loc Local",
    "address": "19 The Broadway,, Shopping Centre Shepherds Bush",
    "city": "London",
    "postcode": "W12 8PP",
    "latitude": 51.50398,
    "longitude": -0.21911,
    "status": "open",
    "openingHours": "Mon-Sun: 07:00-23:00",
    "phone": "03300137687",
    "brand": "sainsburys"
  },
  {
    "id": "sainsburys-5096",
    "name": "Leven Rd Twr Hamlets Local",
    "address": "155 Leven Road, Poplar",
    "city": "London",
    "postcode": "E14 0LL",
    "latitude": 51.515,
    "longitude": -0.00253,
    "status": "open",
    "openingHours": "Mon-Sun: 07:00-23:00",
    "phone": "0345 1657 187",
    "brand": "sainsburys"
  },
  {
    "id": "sainsburys-5101",
    "name": "EH OCKHAM RD STH Local",
    "address": "Budgens East Horsley, 1-2 Station Parade",
    "city": "East Horsley",
    "postcode": "KT24 6QN",
    "latitude": 51.27778,
    "longitude": -0.43581,
    "status": "open",
    "openingHours": "Mon-Sun: 07:00-23:00",
    "phone": "03450 130 467",
    "brand": "sainsburys"
  },
  {
    "id": "sainsburys-6107",
    "name": "Th Commercial Rd Loc Local",
    "address": "327 - 329 Commercial Road",
    "city": "London",
    "postcode": "E1 2PS",
    "latitude": 51.5144,
    "longitude": -0.05449,
    "status": "open",
    "openingHours": "Mon-Sun: 07:00-23:00",
    "phone": "03300137718",
    "brand": "sainsburys"
  },
  {
    "id": "sainsburys-6112",
    "name": "Ruislip High Str Loc Local",
    "address": "48 High Street",
    "city": "Ruislip",
    "postcode": "HA4 7AN",
    "latitude": 51.57551,
    "longitude": -0.4261,
    "status": "open",
    "openingHours": "Mon-Sun: 07:00-22:00",
    "phone": "03300137720",
    "brand": "sainsburys"
  },
  {
    "id": "sainsburys-6113",
    "name": "Acton Horn Lane  Loc Local",
    "address": "183 Horn Lane",
    "city": "London",
    "postcode": "W3 6NR",
    "latitude": 51.51488,
    "longitude": -0.26889,
    "status": "open",
    "openingHours": "Mon-Sun: 07:00-23:00",
    "phone": "03300137721",
    "brand": "sainsburys"
  },
  {
    "id": "sainsburys-6114",
    "name": "E Fnchly High Rd Loc Local",
    "address": "132 High Road, East Finchley",
    "city": "London",
    "postcode": "N2 9ED",
    "latitude": 51.59085,
    "longitude": -0.16438,
    "status": "open",
    "openingHours": "Mon-Sun: 07:00-23:00",
    "phone": "0330 013 7722",
    "brand": "sainsburys"
  },
  {
    "id": "sainsburys-6117",
    "name": "Islewrth Lndn Rd Loc Local",
    "address": "489 London Road",
    "city": "Isleworth",
    "postcode": "TW7 4BX",
    "latitude": 51.47495,
    "longitude": -0.33841,
    "status": "open",
    "openingHours": "Mon-Sun: 07:00-23:00",
    "phone": "03300137725",
    "brand": "sainsburys"
  },
  {
    "id": "sainsburys-6121",
    "name": "Crydn Thorntn Rd Loc Local",
    "address": "114-116 Thornton Road, Thornton Heath",
    "city": "Croydon",
    "postcode": "CR7 6BB",
    "latitude": 51.3917,
    "longitude": -0.11892,
    "status": "open",
    "openingHours": "Mon-Sun: 07:00-23:00",
    "phone": "03300137727",
    "brand": "sainsburys"
  },
  {
    "id": "sainsburys-6123",
    "name": "Ldn Hlbrn Circus Loc Local",
    "address": "123 Holborn",
    "city": "London",
    "postcode": "EC1N 2TD",
    "latitude": 51.51806,
    "longitude": -0.10848,
    "status": "open",
    "openingHours": "Mon-Thu: 07:00-19:00, Fri-Sat: 00:00-00:00, Sun: 07:00-19:00",
    "phone": "03300137729",
    "brand": "sainsburys"
  },
  {
    "id": "sainsburys-6131",
    "name": "Stockwell Statin Loc Local",
    "address": "2A-2D Binfield Road",
    "city": "London",
    "postcode": "SW4 6TA",
    "latitude": 51.47275,
    "longitude": -0.12283,
    "status": "open",
    "openingHours": "Mon-Sun: 07:00-23:00",
    "phone": "03300137734",
    "brand": "sainsburys"
  },
  {
    "id": "sainsburys-6561",
    "name": "Twickenham Statn Loc Local",
    "address": "Twickenham Railway Station, 82 London Road",
    "city": "Twickenham",
    "postcode": "TW1 1BD",
    "latitude": 51.45031,
    "longitude": -0.33065,
    "status": "open",
    "openingHours": "Mon-Fri: 06:30-23:00, Sat: 07:00-23:00, Sun: 06:30-23:00",
    "phone": "03300137814",
    "brand": "sainsburys"
  },
  {
    "id": "sainsburys-10110003",
    "name": "Pepper Hill",
    "address": "Wingfield Bank, Northfleet",
    "city": "GRAVESEND",
    "postcode": "DA11 8JH",
    "latitude": 51.43021,
    "longitude": 0.33285,
    "status": "open",
    "openingHours": "Mon-Thu: 09:00-19:00, Fri: 09:00-17:00, Sat: 10:00-16:00, Sun: 09:00-19:00",
    "phone": "03450130687",
    "brand": "sainsburys"
  },
  {
    "id": "sainsburys-10110011",
    "name": "Lee Green",
    "address": "14 Burnt Ash Road",
    "city": "LONDON",
    "postcode": "SE12 8PZ",
    "latitude": 51.45582,
    "longitude": 0.01042,
    "status": "open",
    "openingHours": "Mon-Wed: 10:00-16:00, Thu: 09:00-18:00, Fri: 10:00-16:00, Sat: 11:00-16:00, Sun: 10:00-16:00",
    "phone": "0345 0130958",
    "brand": "sainsburys"
  },
  {
    "id": "sainsburys-10110017",
    "name": "Crayford",
    "address": "Stadium Way",
    "city": "DARTFORD",
    "postcode": "DA1 4HW",
    "latitude": 51.44917,
    "longitude": 0.17882,
    "status": "open",
    "openingHours": "Mon-Wed: 10:00-18:00, Thu: 09:00-18:00, Fri: 09:00-17:00, Sat: 10:00-16:00, Sun: 10:00-18:00",
    "phone": "0345 0130963",
    "brand": "sainsburys"
  },
  {
    "id": "sainsburys-10110019",
    "name": "Locksbottom",
    "address": "Pallant Way",
    "city": "Orpington",
    "postcode": "BR6 8NZ",
    "latitude": 51.3661,
    "longitude": 0.05546,
    "status": "open",
    "openingHours": "Mon-Wed: 10:00-16:00, Thu: 09:00-18:00, Fri: 10:00-16:00, Sat: 11:00-16:00, Sun: 10:00-16:00",
    "phone": "0345 0130794",
    "brand": "sainsburys"
  },
  {
    "id": "sainsburys-10110023",
    "name": "Warlingham",
    "address": "631 Limpsfield Road",
    "city": "Warlingham",
    "postcode": "CR6 9DY",
    "latitude": 51.30755,
    "longitude": -0.04328,
    "status": "open",
    "openingHours": "Mon-Wed: 10:00-18:00, Thu: 09:00-18:00, Fri: 09:00-17:00, Sat: 10:00-16:00, Sun: 10:00-18:00",
    "phone": "0345 0130747",
    "brand": "sainsburys"
  },
  {
    "id": "sainsburys-10110679",
    "name": "Staines",
    "address": "The Causeway",
    "city": "STAINES",
    "postcode": "TW18 3AP",
    "latitude": 51.43252,
    "longitude": -0.51965,
    "status": "open",
    "openingHours": "Mon-Wed: 10:00-18:00, Thu: 09:00-18:00, Fri: 09:00-17:00, Sat: 10:00-16:00, Sun: 10:00-18:00",
    "phone": "0345 0130825",
    "brand": "sainsburys"
  },
  {
    "id": "sainsburys-10110683",
    "name": "Kiln Lane",
    "address": "Kiln Lane",
    "city": "EPSOM",
    "postcode": "KT17 1EQ",
    "latitude": 51.3416,
    "longitude": -0.25773,
    "status": "open",
    "openingHours": "Mon-Thu: 09:00-19:00, Fri: 09:00-17:00, Sat: 10:00-16:00, Sun: 09:00-19:00",
    "phone": "0345 0131081",
    "brand": "sainsburys"
  },
  {
    "id": "sainsburys-10110687",
    "name": "Cobham",
    "address": "Bridge Way",
    "city": "COBHAM",
    "postcode": "KT11 1HW",
    "latitude": 51.33629,
    "longitude": -0.42138,
    "status": "open",
    "openingHours": "Mon-Wed: 10:00-18:00, Thu: 09:00-18:00, Fri: 09:00-17:00, Sat: 10:00-16:00, Sun: 10:00-18:00",
    "phone": "0345 0131083",
    "brand": "sainsburys"
  },
  {
    "id": "sainsburys-10110693",
    "name": "Sydenham",
    "address": "Southend Lane",
    "city": "LONDON",
    "postcode": "SE26 4PU",
    "latitude": 51.43012,
    "longitude": -0.03341,
    "status": "open",
    "openingHours": "Mon-Wed: 10:00-18:00, Thu: 09:00-18:00, Fri: 09:00-17:00, Sat: 11:00-17:00, Sun: 10:00-18:00",
    "phone": "0345 0131085",
    "brand": "sainsburys"
  },
  {
    "id": "sainsburys-10110696",
    "name": "Romford",
    "address": "1 The Brewery",
    "city": "ROMFORD",
    "postcode": "RM1 1AU",
    "latitude": 51.57525,
    "longitude": 0.17952,
    "status": "open",
    "openingHours": "Mon-Wed: 10:00-16:00, Thu: 09:00-18:00, Fri: 10:00-16:00, Sat: 11:00-16:00, Sun: 10:00-16:00",
    "phone": "0345 0130714",
    "brand": "sainsburys"
  },
  {
    "id": "sainsburys-10210444",
    "name": "Enfield",
    "address": "3 Crown Road",
    "city": "Enfield",
    "postcode": "EN1 1TH",
    "latitude": 51.65196,
    "longitude": -0.05762,
    "status": "open",
    "openingHours": "Mon-Thu: 08:00-22:00, Fri: 08:00-21:00, Sat: 10:00-16:00, Sun: 08:00-22:00",
    "phone": "020 8805 5209",
    "brand": "sainsburys"
  },
  {
    "id": "sainsburys-10210460",
    "name": "Whitechapel",
    "address": "1 Cambridge Heath Road",
    "city": "London",
    "postcode": "E1 5SD",
    "latitude": 51.5211,
    "longitude": -0.05864,
    "status": "open",
    "openingHours": "Mon-Fri: 08:00-21:00, Sat: 11:00-17:00, Sun: 08:00-21:00",
    "phone": "020 7247 2604",
    "brand": "sainsburys"
  },
  {
    "id": "sainsburys-10210504",
    "name": "Pinner",
    "address": "12 Barters Walk",
    "city": "Pinner",
    "postcode": "HA5 5LU",
    "latitude": 51.59337,
    "longitude": -0.38079,
    "status": "open",
    "openingHours": "Mon-Thu: 08:00-21:00, Fri: 08:00-20:30, Sat: 10:00-16:00, Sun: 08:00-21:00",
    "phone": "020 8868 1399",
    "brand": "sainsburys"
  },
  {
    "id": "sainsburys-10210507",
    "name": "Crystal Palace",
    "address": "120-122 Whitehorse Lane",
    "city": "London",
    "postcode": "SE25 6XB",
    "latitude": 51.3986,
    "longitude": -0.08699,
    "status": "open",
    "openingHours": "Mon-Thu: 08:00-21:00, Fri: 08:00-20:30, Sat: 11:00-17:00, Sun: 08:00-21:00",
    "phone": "020 8653 7640",
    "brand": "sainsburys"
  },
  {
    "id": "sainsburys-10210508",
    "name": "Watford",
    "address": "Albert Road South",
    "city": "Watford",
    "postcode": "WD17 1PE",
    "latitude": 51.65869,
    "longitude": -0.39921,
    "status": "open",
    "openingHours": "Mon-Thu: 08:00-20:00, Fri: 08:00-21:00, Sat: 10:00-16:00, Sun: 08:00-20:00",
    "phone": "01923 255252",
    "brand": "sainsburys"
  },
  {
    "id": "sainsburys-10210513",
    "name": "North Finchley",
    "address": "836 High Road",
    "city": "London",
    "postcode": "N12 9RE",
    "latitude": 51.61788,
    "longitude": -0.17619,
    "status": "open",
    "openingHours": "Mon-Fri: 08:30-20:00, Sat: 11:00-17:00, Sun: 08:30-20:00",
    "phone": "020 8446 2655",
    "brand": "sainsburys"
  },
  {
    "id": "sainsburys-10210515",
    "name": "Edgware",
    "address": "Broadwalk Shopping Centre, Station Road",
    "city": "Edgware",
    "postcode": "HA8 7BQ",
    "latitude": 51.61193,
    "longitude": -0.27561,
    "status": "open",
    "openingHours": "Mon-Thu: 08:00-20:00, Fri: 08:00-19:30, Sat: 11:00-17:00, Sun: 08:00-20:00",
    "phone": "020 8905 6066",
    "brand": "sainsburys"
  },
  {
    "id": "sainsburys-10210517",
    "name": "Leatherhead",
    "address": "19-25 The Swan Centre, High Street",
    "city": "Leatherhead",
    "postcode": "KT22 8AH",
    "latitude": 51.29598,
    "longitude": -0.32764,
    "status": "open",
    "openingHours": "Mon-Thu: 08:00-20:00, Fri: 08:00-19:00, Sat: 10:00-16:00, Sun: 08:00-20:00",
    "phone": "01372 378539",
    "brand": "sainsburys"
  },
  {
    "id": "sainsburys-10210679",
    "name": "Staines",
    "address": "The Causeway",
    "city": "Staines",
    "postcode": "TW18 3AP",
    "latitude": 51.43252,
    "longitude": -0.51965,
    "status": "open",
    "openingHours": "Mon-Fri: 08:00-20:00, Sat: 10:00-16:00, Sun: 08:00-20:00",
    "phone": "01784 456644",
    "brand": "sainsburys"
  },
  {
    "id": "sainsburys-10210683",
    "name": "Kiln Lane",
    "address": "Kiln Lane",
    "city": "Epsom",
    "postcode": "KT17 1EQ",
    "latitude": 51.3416,
    "longitude": -0.25773,
    "status": "open",
    "openingHours": "Mon-Fri: 08:00-21:00, Sat: 10:00-16:00, Sun: 08:00-21:00",
    "phone": "01372 745240",
    "brand": "sainsburys"
  },
  {
    "id": "sainsburys-10210687",
    "name": "Cobham",
    "address": "Bridge Way",
    "city": "Cobham",
    "postcode": "KT11 1HW",
    "latitude": 51.33629,
    "longitude": -0.42138,
    "status": "open",
    "openingHours": "Mon-Fri: 08:00-20:00, Sat: 10:00-16:00, Sun: 08:00-20:00",
    "phone": "01932 866488",
    "brand": "sainsburys"
  },
  {
    "id": "sainsburys-10210693",
    "name": "Sydenham",
    "address": "Southend Lane",
    "city": "London",
    "postcode": "SE26 4PU",
    "latitude": 51.43012,
    "longitude": -0.03341,
    "status": "open",
    "openingHours": "Mon-Fri: 08:00-21:00, Sat: 11:00-17:00, Sun: 08:00-21:00",
    "phone": "0203 1267260",
    "brand": "sainsburys"
  },
  {
    "id": "sainsburys-10210696",
    "name": "Romford",
    "address": "1 The Brewery",
    "city": "Romford",
    "postcode": "RM1 1AU",
    "latitude": 51.57525,
    "longitude": 0.17952,
    "status": "open",
    "openingHours": "Mon-Thu: 08:00-21:00, Fri: 08:00-20:30, Sat: 11:00-17:00, Sun: 08:00-21:00",
    "phone": "01708 753651",
    "brand": "sainsburys"
  },
  {
    "id": "sainsburys-10212005",
    "name": "Hoddesdon",
    "address": "Brewery Road",
    "city": "Hoddesdon",
    "postcode": "EN11 8HF",
    "latitude": 51.76046,
    "longitude": -0.00828,
    "status": "open",
    "openingHours": "Mon-Fri: 08:00-20:00, Sat: 10:00-16:00, Sun: 08:00-20:00",
    "phone": "01992444465",
    "brand": "sainsburys"
  },
  {
    "id": "sainsburys-10212006",
    "name": "Wallington",
    "address": "2 Stafford Road",
    "city": "Wallington",
    "postcode": "SM6 9AA",
    "latitude": 51.35802,
    "longitude": -0.14778,
    "status": "open",
    "openingHours": "Mon-Thu: 08:00-20:00, Fri: 08:00-21:00, Sat: 10:00-16:00, Sun: 08:00-20:00",
    "phone": "020 8773 2379",
    "brand": "sainsburys"
  },
  {
    "id": "sainsburys-10212012",
    "name": "Penge",
    "address": "158-162 High Street",
    "city": "London",
    "postcode": "SE20 7QS",
    "latitude": 51.41279,
    "longitude": -0.05135,
    "status": "open",
    "openingHours": "Mon-Thu: 08:00-20:00, Fri: 08:00-20:30, Sat: 11:00-17:00, Sun: 08:00-20:00",
    "phone": "020 8776 5570",
    "brand": "sainsburys"
  }
]