[
  {
    "id": 3362467,
    "identifier": "10325",
    "googlePlaceId": "ChIJnQZ2yc4EdkgRQFjCmkXWGNU",
    "lat": 51.51468871,
    "lng": -0.12496523,
    "name": "Pret A Manger",
    "country": "UK",
    "city": "London",
    "province": "Greater London",
    "streetAndNumber": "37 Shelton Street",
    "zip": "WC2H 9HN",
    "businessId": 1451884,
    "addressExtra": null
  },
  {
    "id": 3362468,
    "identifier": "10439",
    "googlePlaceId": "ChIJszeFaigbdkgRxFFciE3gDnk",
    "lat": 51.5241459,
    "lng": -0.1389788,
    "name": "Pret A Manger",
    "country": "UK",
    "city": "London",
    "province": "Greater London",
    "streetAndNumber": "14 Warren Street",
    "zip": "W1T 5LL",
    "businessId": 1451884,
    "addressExtra": null
  },
  {
    "id": 3362469,
    "identifier": "10145",
    "googlePlaceId": "ChIJf096Ey0bdkgRXm3KzEpCKPs",
    "lat": 51.5202627,
    "lng": -0.1342397,
    "name": "Pret A Manger",
    "country": "UK",
    "city": "London",
    "province": "Greater London",
    "streetAndNumber": "67 Tottenham Court Road",
    "zip": "W1T 2EY",
    "businessId": 1451884,
    "addressExtra": null
  },
  {
    "id": 3362470,
    "identifier": "10560",
    "googlePlaceId": "ChIJMS8zSAAbdkgRDRK7ScCbYlk",
    "lat": 51.531427,
    "lng": -0.126133,
    "name": "Pret A Manger",
    "country": "UK",
    "city": "London",
    "province": "Greater London",
    "streetAndNumber": "Euston Road",
    "zip": "N1C 4QP",
    "businessId": 1451884,
    "addressExtra": "Retail Unit 26 & 27, The Circle, St Pancras International"
  },
  {
    "id": 3362471,
    "identifier": "10317",
    "googlePlaceId": "ChIJ53bz-TsbdkgRMO_6tzdHxso",
    "lat": 51.53154315,
    "lng": -0.12457351,
    "name": "Pret A Manger",
    "country": "UK",
    "city": "London",
    "province": "Greater London",
    "streetAndNumber": "York Way",
    "zip": "N1C 9AP",
    "businessId": 1451884,
    "addressExtra": "Kings Cross Station, Unit Cg08"
  },
  {
    "id": 3362472,
    "identifier": "10563",
    "googlePlaceId": "ChIJk2S3rSUbdkgR-xuhq-kfp_c",
    "lat": 51.527607,
    "lng": -0.1331756,
    "name": "Pret A Manger",
    "country": "UK",
    "city": "London",
    "province": "Greater London",
    "streetAndNumber": "Euston Road",
    "zip": "N1C 4AP",
    "businessId": 1451884,
    "addressExtra": "Unit 1 Southern Square"
  },
  {
    "id": 3362474,
    "identifier": "10555",
    "googlePlaceId": "ChIJD7HP2zQFdkgROb-0ExOyQws",
    "lat": 51.5137263,
    "lng": -0.160508,
    "name": "Pret A Manger",
    "country": "UK",
    "city": "London",
    "province": "Greater London",
    "streetAndNumber": "26 Edgware Road",
    "zip": "W2 2EH",
    "businessId": 1451884,
    "addressExtra": null
  },
  {
    "id": 3362475,
    "identifier": "10438",
    "googlePlaceId": "ChIJAdzvMdwFdkgRXLjMN4ymv4c",
    "lat": 51.5132807,
    "lng": -0.1127745,
    "name": "Pret A Manger",
    "country": "UK",
    "city": "London",
    "province": "Greater London",
    "streetAndNumber": "217 Strand",
    "zip": "WC2R 1AT",
    "businessId": 1451884,
    "addressExtra": null
  },
  {
    "id": 3362476,
    "identifier": "10433",
    "googlePlaceId": "ChIJm5PP8xQFdkgRqJ3drpKBd9s",
    "lat": 51.49020613,
    "lng": -0.16199477,
    "name": "Pret A Manger",
    "country": "UK",
    "city": "London",
    "province": "Greater London",
    "streetAndNumber": "35-37 King's Road",
    "zip": "SW3 4NB",
    "businessId": 1451884,
    "addressExtra": null
  },
  {
    "id": 3362478,
    "identifier": "10440",
    "googlePlaceId": "ChIJ5ws3tUIbdkgRnPIAQPuWAU0",
    "lat": 51.5342006,
    "lng": -0.1060342,
    "name": "Pret A Manger",
    "country": "UK",
    "city": "London",
    "province": "Greater London",
    "streetAndNumber": "12 Parkfield Street",
    "zip": "N1 0PS",
    "businessId": 1451884,
    "addressExtra": "Islington"
  },
  {
    "id": 3362480,
    "identifier": "10578",
    "googlePlaceId": "ChIJw5yi1s4adkgRJvDXORsKbcU",
    "lat": 51.52267336,
    "lng": -0.15630102,
    "name": "Pret A Manger",
    "country": "UK",
    "city": "London",
    "province": "Greater London",
    "streetAndNumber": "Marylebone Road",
    "zip": "NW1 5LA",
    "businessId": 1451884,
    "addressExtra": "Baker Street Tube"
  },
  {
    "id": 3362482,
    "identifier": "10382",
    "googlePlaceId": "ChIJgXmQoyEFdkgRVy3kOIiWf98",
    "lat": 51.5032988,
    "lng": -0.1124044,
    "name": "Pret A Manger",
    "country": "UK",
    "city": "London",
    "province": "Greater London",
    "streetAndNumber": "Unit GO1A Waterloo Station, Main Concourse",
    "zip": "SE1 7NQ",
    "businessId": 1451884,
    "addressExtra": "Main Concourse, Unit GO1A, Waterloo Station"
  },
  {
    "id": 3362483,
    "identifier": "10444",
    "googlePlaceId": "ChIJn0sdnq0adkgRpGeQ9Z9IP0I",
    "lat": 51.5166744,
    "lng": -0.1769328,
    "name": "Pret A Manger",
    "country": "UK",
    "city": "London",
    "province": "Greater London",
    "streetAndNumber": "Paddington Subway Sta",
    "zip": "W2 1HB",
    "businessId": 1451884,
    "addressExtra": "Paddington Station, Unit 26, Platform 1"
  },
  {
    "id": 3362484,
    "identifier": "10445",
    "googlePlaceId": "ChIJSSqhuKkcdkgR6zF10lgHLqQ",
    "lat": 51.5220227,
    "lng": -0.0924261,
    "name": "Pret A Manger",
    "country": "UK",
    "city": "London",
    "province": "Greater London",
    "streetAndNumber": "Whitecross Street",
    "zip": "EC1Y 8NX",
    "businessId": 1451884,
    "addressExtra": "Unit 1, City Shopping Centre"
  },
  {
    "id": 3362485,
    "identifier": "10657",
    "googlePlaceId": "ChIJxZ5bKL0DdkgRdjjhY4EuJsk",
    "lat": 51.5046203181577,
    "lng": -0.0859852813422683,
    "name": "Pret A Manger",
    "country": "UK",
    "city": "London",
    "province": "Greater London",
    "streetAndNumber": "St Thomas St",
    "zip": "SE1 9SP",
    "businessId": 1451884,
    "addressExtra": "Railway Approach, London Bridge Station"
  },
  {
    "id": 3362486,
    "identifier": "10413",
    "googlePlaceId": "ChIJL1ZeLGIddkgRBom55Is59sc",
    "lat": 51.5416798,
    "lng": -0.0026537,
    "name": "Pret A Manger",
    "country": "UK",
    "city": "London",
    "province": "Greater London",
    "streetAndNumber": "21 Station Street",
    "zip": "E15 1DA",
    "businessId": 1451884,
    "addressExtra": null
  },
  {
    "id": 3362490,
    "identifier": "10530",
    "googlePlaceId": "ChIJNaPFDYio2EcRxBDHlKJr14I",
    "lat": 51.50397136,
    "lng": 0.04858966,
    "name": "Pret A Manger",
    "country": "UK",
    "city": "London",
    "province": "Greater London",
    "streetAndNumber": "Hartmann Road",
    "zip": "E16 2PX",
    "businessId": 1451884,
    "addressExtra": "London City Airport, Retail Unit , Gate 3"
  },
  {
    "id": 3362491,
    "identifier": "10316",
    "googlePlaceId": "ChIJ-y9VTnYFdkgRzxQ8Z4_dMXc",
    "lat": 51.5145178,
    "lng": -0.1439031,
    "name": "Pret A Manger",
    "country": "UK",
    "city": "London",
    "province": "Greater London",
    "streetAndNumber": "13 Hanover Square",
    "zip": "W1S 1HN",
    "businessId": 1451884,
    "addressExtra": null
  },
  {
    "id": 3362492,
    "identifier": "10261",
    "googlePlaceId": "ChIJwS8LCwIbdkgRNuWvxAOAc_8",
    "lat": 51.5505322,
    "lng": -0.1409513,
    "name": "Pret A Manger",
    "country": "UK",
    "city": "London",
    "province": "Greater London",
    "streetAndNumber": "341 Kentish Town Road",
    "zip": "NW5 2TJ",
    "businessId": 1451884,
    "addressExtra": null
  },
  {
    "id": 3362494,
    "identifier": "102",
    "googlePlaceId": "ChIJgXmQoyEFdkgRVy3kOIiWf98",
    "lat": 51.49534556,
    "lng": -0.14390863,
    "name": "Pret A Manger",
    "country": "UK",
    "city": "London",
    "province": "Greater London",
    "streetAndNumber": "Wilton Road",
    "zip": "SW1V 1JU",
    "businessId": 1451884,
    "addressExtra": "Unit 36B, Victoria Station"
  },
  {
    "id": 3362497,
    "identifier": "10385",
    "googlePlaceId": "ChIJkce6xb0adkgRr6cIg9Yw0dY",
    "lat": 51.53421,
    "lng": -0.1716,
    "name": "Pret A Manger",
    "country": "UK",
    "city": "London",
    "province": "Greater London",
    "streetAndNumber": "2-4 Circus Road",
    "zip": "NW8 6PG",
    "businessId": 1451884,
    "addressExtra": null
  },
  {
    "id": 3362499,
    "identifier": "104",
    "googlePlaceId": "ChIJW3HUgvsPdkgRHVK8WIOke1s",
    "lat": 51.50899,
    "lng": -0.1967,
    "name": "Pret A Manger",
    "country": "UK",
    "city": "London",
    "province": "Greater London",
    "streetAndNumber": "65 Notting Hill Gate",
    "zip": "W11 3JS",
    "businessId": 1451884,
    "addressExtra": null
  },
  {
    "id": 3362501,
    "identifier": "10607",
    "googlePlaceId": "ChIJF0CZd-EadkgRiYFYMnByxj8",
    "lat": 51.5400930557987,
    "lng": -0.143954340401493,
    "name": "Pret A Manger",
    "country": "UK",
    "city": "London",
    "province": "Greater London",
    "streetAndNumber": "231 Camden High Street",
    "zip": "NW1 7BU",
    "businessId": 1451884,
    "addressExtra": null
  },
  {
    "id": 3362506,
    "identifier": "106",
    "googlePlaceId": "ChIJLbzwx7IEdkgRLMobEpNLg9k",
    "lat": 51.514351,
    "lng": -0.10709,
    "name": "Pret A Manger",
    "country": "UK",
    "city": "London",
    "province": "Greater London",
    "streetAndNumber": "143 Fleet Street",
    "zip": "EC4Y 1HY",
    "businessId": 1451884,
    "addressExtra": null
  },
  {
    "id": 3362508,
    "identifier": "211",
    "googlePlaceId": "ChIJWcH0qE0DdkgRvzY5PG8TRjY",
    "lat": 51.5121214,
    "lng": -0.079606,
    "name": "Pret A Manger",
    "country": "UK",
    "city": "London",
    "province": "Greater London",
    "streetAndNumber": "62-63 Fenchurch Street",
    "zip": "EC3M 4AQ",
    "businessId": 1451884,
    "addressExtra": "Vitro Building"
  },
  {
    "id": 3362509,
    "identifier": "219",
    "googlePlaceId": "ChIJM5etLc4EdkgR9tKi3FAOmYM",
    "lat": 51.507312,
    "lng": -0.128631,
    "name": "Pret A Manger",
    "country": "UK",
    "city": "London",
    "province": "Greater London",
    "streetAndNumber": "62-65 Trafalgar Square",
    "zip": "WC2N 5DS",
    "businessId": 1451884,
    "addressExtra": null
  },
  {
    "id": 3362510,
    "identifier": "10435",
    "googlePlaceId": "ChIJpUY3Tq0cdkgRZMfSgn6dh-M",
    "lat": 51.5153832,
    "lng": -0.0826456,
    "name": "Pret A Manger",
    "country": "UK",
    "city": "London",
    "province": "Greater London",
    "streetAndNumber": "55 Bishopsgate",
    "zip": "EC2N 3AS",
    "businessId": 1451884,
    "addressExtra": null
  },
  {
    "id": 3362512,
    "identifier": "10175",
    "googlePlaceId": "ChIJm0ZD2bkCdkgRomR-H0Q0myw",
    "lat": 51.505043,
    "lng": -0.01904,
    "name": "Pret A Manger",
    "country": "UK",
    "city": "London",
    "province": "Greater London",
    "streetAndNumber": "Canada Place",
    "zip": "E14 5NN",
    "businessId": 1451884,
    "addressExtra": "Unit 7, Building DS4, Canary Wharf"
  },
  {
    "id": 3362515,
    "identifier": "223",
    "googlePlaceId": "ChIJ5TJl3tQadkgRnrJOaNzBRjE",
    "lat": 51.5159343,
    "lng": -0.144161545,
    "name": "Pret A Manger",
    "country": "UK",
    "city": "London",
    "province": "Greater London",
    "streetAndNumber": "31 Cavendish Square",
    "zip": "W1G 0PW",
    "businessId": 1451884,
    "addressExtra": null
  },
  {
    "id": 3362516,
    "identifier": "174",
    "googlePlaceId": "ChIJNe9939UadkgRWdlZnIyZ1yE",
    "lat": 51.5202708,
    "lng": -0.1426412,
    "name": "Pret A Manger",
    "country": "UK",
    "city": "London",
    "province": "Greater London",
    "streetAndNumber": "136 Great Portland Street",
    "zip": "W1W 6PY",
    "businessId": 1451884,
    "addressExtra": null
  },
  {
    "id": 3362517,
    "identifier": "265",
    "googlePlaceId": "ChIJeV-LG1MFdkgRrTMvTsK9ghs",
    "lat": 51.4963349,
    "lng": -0.1421851,
    "name": "Pret A Manger",
    "country": "UK",
    "city": "London",
    "province": "Greater London",
    "streetAndNumber": "173 Victoria Street",
    "zip": "SW1E 5NA",
    "businessId": 1451884,
    "addressExtra": null
  },
  {
    "id": 3362518,
    "identifier": "10434",
    "googlePlaceId": "ChIJOxbkwtEEdkgRlWVNN4xmIVU",
    "lat": 51.5082321,
    "lng": -0.130062,
    "name": "Pret A Manger",
    "country": "UK",
    "city": "London",
    "province": "Greater London",
    "streetAndNumber": "5 Pall Mall East",
    "zip": "SW1Y 5BA",
    "businessId": 1451884,
    "addressExtra": null
  },
  {
    "id": 3362522,
    "identifier": "156",
    "googlePlaceId": "ChIJAUcwsUAFdkgRvLG4jKsvyAk",
    "lat": 51.498756,
    "lng": -0.1657017,
    "name": "Pret A Manger",
    "country": "UK",
    "city": "London",
    "province": "Greater London",
    "streetAndNumber": "132 Brompton Road",
    "zip": "SW3 1HY",
    "businessId": 1451884,
    "addressExtra": null
  },
  {
    "id": 3362523,
    "identifier": "10437",
    "googlePlaceId": "ChIJgXA5J9wEdkgRRyhas_s3jDU",
    "lat": 51.4973714,
    "lng": -0.1353875,
    "name": "Pret A Manger",
    "country": "UK",
    "city": "London",
    "province": "Greater London",
    "streetAndNumber": "93-95 Victoria Street",
    "zip": "SW1H 0HW",
    "businessId": 1451884,
    "addressExtra": null
  },
  {
    "id": 3362524,
    "identifier": "92",
    "googlePlaceId": "ChIJmYtTDCUFdkgRxgQvOfS7h1s",
    "lat": 51.52532627,
    "lng": -0.1392553,
    "name": "Pret A Manger",
    "country": "UK",
    "city": "London",
    "province": "Greater London",
    "streetAndNumber": "Euston Road",
    "zip": "NW1 3DP",
    "businessId": 1451884,
    "addressExtra": "Euston Tower Podium, Unit 1"
  },
  {
    "id": 3362525,
    "identifier": "10402",
    "googlePlaceId": "ChIJRbatIrUcdkgRFmDa3MXBRnE",
    "lat": 51.5155828325732,
    "lng": -0.0728276799831688,
    "name": "Pret A Manger",
    "country": "UK",
    "city": "London",
    "province": "Greater London",
    "streetAndNumber": "1 Commercial Street",
    "zip": "E1 6BF",
    "businessId": 1451884,
    "addressExtra": null
  },
  {
    "id": 3362527,
    "identifier": "10114",
    "googlePlaceId": "ChIJdSAwGTsbdkgRrrdv7f01dgk",
    "lat": 51.528334,
    "lng": -0.1275658,
    "name": "Pret A Manger",
    "country": "UK",
    "city": "London",
    "province": "Greater London",
    "streetAndNumber": "117 Euston Road",
    "zip": "NW1 2SX",
    "businessId": 1451884,
    "addressExtra": "Euston Station"
  },
  {
    "id": 3362528,
    "identifier": "86",
    "googlePlaceId": "ChIJf1NhqNcadkgR0VWCi_6JuNk",
    "lat": 51.5234251,
    "lng": -0.1438496,
    "name": "Pret A Manger",
    "country": "UK",
    "city": "London",
    "province": "Greater London",
    "streetAndNumber": "244 Great Portland Street",
    "zip": "W1W 5QX",
    "businessId": 1451884,
    "addressExtra": null
  },
  {
    "id": 3362529,
    "identifier": "10414",
    "googlePlaceId": "ChIJlcb1W0obdkgRRBclLNbuQR0",
    "lat": 51.5176869698502,
    "lng": -0.117104594327442,
    "name": "Pret A Manger",
    "country": "UK",
    "city": "London",
    "province": "Greater London",
    "streetAndNumber": "280 High Holborn",
    "zip": "WC1V 7EE",
    "businessId": 1451884,
    "addressExtra": null
  },
  {
    "id": 3362534,
    "identifier": "10418",
    "googlePlaceId": "ChIJ3YrSvlADdkgR-kRSiQrQYis",
    "lat": 51.505535500031876,
    "lng": -0.08874475089940473,
    "name": "Pret A Manger",
    "country": "UK",
    "city": "London",
    "province": "Greater London",
    "streetAndNumber": "11-15 Borough High Street",
    "zip": "SE1 9SE",
    "businessId": 1451884,
    "addressExtra": null
  },
  {
    "id": 3362536,
    "identifier": "10173",
    "googlePlaceId": "ChIJBbfjh40DdkgRAWpc6RoLD0U",
    "lat": 51.5066381,
    "lng": -0.0278379,
    "name": "Pret A Manger",
    "country": "UK",
    "city": "London",
    "province": "Greater London",
    "streetAndNumber": "Canada Square",
    "zip": "E14 5NN",
    "businessId": 1451884,
    "addressExtra": "Canary Wharf, RT2, Unit 10, Canada Place Mall"
  },
  {
    "id": 3362539,
    "identifier": "284",
    "googlePlaceId": "ChIJQ8oR3TAbdkgRgnxJ_RmO-JY",
    "lat": 51.5233079,
    "lng": -0.1248167,
    "name": "Pret A Manger",
    "country": "UK",
    "city": "London",
    "province": "Greater London",
    "streetAndNumber": "40 Bernard Street",
    "zip": "WC1N 1LE",
    "businessId": 1451884,
    "addressExtra": null
  },
  {
    "id": 3362540,
    "identifier": "10556",
    "googlePlaceId": "ChIJYWp08eYEdkgRhhSfC7Peaeg",
    "lat": 51.49033402,
    "lng": -0.13257288,
    "name": "Pret A Manger",
    "country": "UK",
    "city": "London",
    "province": "Greater London",
    "streetAndNumber": "40 Vauxhall Bridge Road",
    "zip": "SW1V 2RX",
    "businessId": 1451884,
    "addressExtra": null
  },
  {
    "id": 3362541,
    "identifier": "10526",
    "googlePlaceId": "ChIJwapq_1IDdkgR4VzzDUBEm8s",
    "lat": 51.5122786596993,
    "lng": -0.0846698130406552,
    "name": "Pret A Manger",
    "country": "UK",
    "city": "London",
    "province": "Greater London",
    "streetAndNumber": "77-80 Gracechurch Street",
    "zip": "EC3V 0AS",
    "businessId": 1451884,
    "addressExtra": null
  },
  {
    "id": 3362542,
    "identifier": "10527",
    "googlePlaceId": "ChIJ1ybkm5gEdkgR0I_vMPzHOPM",
    "lat": 51.4933641,
    "lng": -0.098685,
    "name": "Pret A Manger",
    "country": "UK",
    "city": "London",
    "province": "Greater London",
    "streetAndNumber": "Elephant and Castle",
    "zip": "SE1 6BH",
    "businessId": 1451884,
    "addressExtra": "1 The Elephant, Elephant & Castle"
  },
  {
    "id": 3362545,
    "identifier": "10394",
    "googlePlaceId": "ChIJj73HI1cbdkgRAeM4LfIH-9E",
    "lat": 51.5224201,
    "lng": -0.1075039,
    "name": "Pret A Manger",
    "country": "UK",
    "city": "London",
    "province": "Greater London",
    "streetAndNumber": "95 Farringdon Road",
    "zip": "EC1R 3BT",
    "businessId": 1451884,
    "addressExtra": null
  },
  {
    "id": 3362546,
    "identifier": "10521",
    "googlePlaceId": "ChIJC7iCNUwbdkgR_5GMbSaFTcI",
    "lat": 51.51858703,
    "lng": -0.10883632,
    "name": "Pret A Manger",
    "country": "UK",
    "city": "London",
    "province": "Greater London",
    "streetAndNumber": "8B Leather Lane",
    "zip": "EC1N 7RA",
    "businessId": 1451884,
    "addressExtra": null
  },
  {
    "id": 3362554,
    "identifier": "95",
    "googlePlaceId": "ChIJP3UC71IbdkgRY7usI9oHIoE",
    "lat": 51.51661319,
    "lng": -0.1036033,
    "name": "Pret A Manger",
    "country": "UK",
    "city": "London",
    "province": "Greater London",
    "streetAndNumber": "11-13 Holborn Viaduct",
    "zip": "EC1A 2AT",
    "businessId": 1451884,
    "addressExtra": "Fleetplate House"
  },
  {
    "id": 3362558,
    "identifier": "10670",
    "googlePlaceId": "ChIJi1T_c5cFdkgRNVwhFW6GTSg",
    "lat": 51.4613402,
    "lng": -0.1674908,
    "name": "Pret A Manger",
    "country": "UK",
    "city": "London",
    "province": "Greater London",
    "streetAndNumber": "80-82 Saint John's Road",
    "zip": "SW11 1PX",
    "businessId": 1451884,
    "addressExtra": null
  },
  {
    "id": 3362562,
    "identifier": "293",
    "googlePlaceId": "ChIJnXwny6ocdkgRTFOMp1TeWmg",
    "lat": 51.51416,
    "lng": -0.0931504,
    "name": "Pret A Manger",
    "country": "UK",
    "city": "London",
    "province": "Greater London",
    "streetAndNumber": "30 Gresham Street",
    "zip": "EC2V 7PG",
    "businessId": 1451884,
    "addressExtra": "Unit 3"
  },
  {
    "id": 3362564,
    "identifier": "10682",
    "googlePlaceId": "ChIJ4_5bx48FdkgRnytrEK0KWyU",
    "lat": 51.5147514,
    "lng": -0.1405998,
    "name": "Pret A Manger",
    "country": "UK",
    "city": "London",
    "province": "Greater London",
    "streetAndNumber": "9 Argyll Street",
    "zip": "W1F 7TG",
    "businessId": 1451884,
    "addressExtra": null
  },
  {
    "id": 3362566,
    "identifier": "10536",
    "googlePlaceId": "ChIJV3UmfeMbdkgR8fjQbrSB8vo",
    "lat": 51.5944812912075,
    "lng": -0.108530129673587,
    "name": "Pret A Manger",
    "country": "UK",
    "city": "London",
    "province": "Greater London",
    "streetAndNumber": "High Road",
    "zip": "N22 6YA",
    "businessId": 1451884,
    "addressExtra": "Wood Green, Unit 23, The Mall"
  },
  {
    "id": 3362570,
    "identifier": "10286",
    "googlePlaceId": "ChIJAa-ktT4bdkgR4gZkJfuaIV0",
    "lat": 51.5333608,
    "lng": -0.12221597,
    "name": "Pret A Manger",
    "country": "UK",
    "city": "London",
    "province": "Greater London",
    "streetAndNumber": "54-60 York Way",
    "zip": "N1 9AB",
    "businessId": 1451884,
    "addressExtra": null
  },
  {
    "id": 3362572,
    "identifier": "10683",
    "googlePlaceId": "ChIJvwz_K8IddkgRS4jE3-VW25Y",
    "lat": 51.583618,
    "lng": -0.0223932,
    "name": "Pret A Manger",
    "country": "UK",
    "city": "London",
    "province": "Greater London",
    "streetAndNumber": "42 Selborne Road",
    "zip": "E17 7JR",
    "businessId": 1451884,
    "addressExtra": "Walthamstow, Unit 59-60 The Mall"
  },
  {
    "id": 3362573,
    "identifier": "10701",
    "googlePlaceId": "ChIJgcvzpasEdkgR0WjIz7W1-0I",
    "lat": 51.51023921,
    "lng": -0.10327176,
    "name": "Pret A Manger",
    "country": "UK",
    "city": "London",
    "province": "Greater London",
    "streetAndNumber": "Blackfriars Bridge",
    "zip": "EC4V 4DD",
    "businessId": 1451884,
    "addressExtra": "Blackfriars Bridge"
  },
  {
    "id": 3362576,
    "identifier": "10639",
    "googlePlaceId": "ChIJeykNrLEFdkgRSfVHsXeLK-Q",
    "lat": 51.4630531,
    "lng": -0.1145677,
    "name": "Pret A Manger",
    "country": "UK",
    "city": "London",
    "province": "Greater London",
    "streetAndNumber": "417 Brixton Road",
    "zip": "SW9 8HE",
    "businessId": 1451884,
    "addressExtra": null
  },
  {
    "id": 3362577,
    "identifier": "10466",
    "googlePlaceId": "ChIJRVi-MVMDdkgRYPsTO99GDWw",
    "lat": 51.5148276,
    "lng": -0.0861277,
    "name": "Pret A Manger",
    "country": "UK",
    "city": "London",
    "province": "Greater London",
    "streetAndNumber": "125 Old Broad Street",
    "zip": "EC2N 1DW",
    "businessId": 1451884,
    "addressExtra": null
  },
  {
    "id": 3362582,
    "identifier": "6",
    "googlePlaceId": "ChIJCd2GdNcEdkgRoNIgxqQZIAU",
    "lat": 51.5057851,
    "lng": -0.13803,
    "name": "Pret A Manger",
    "country": "UK",
    "city": "London",
    "province": "Greater London",
    "streetAndNumber": "21 Crown Passage",
    "zip": "SW1Y 6PP",
    "businessId": 1451884,
    "addressExtra": null
  },
  {
    "id": 3362583,
    "identifier": "89",
    "googlePlaceId": "ChIJUyHy_kkbdkgRa_U3bJ6n9w8",
    "lat": 51.52039,
    "lng": -0.1170943,
    "name": "Pret A Manger",
    "country": "UK",
    "city": "London",
    "province": "Greater London",
    "streetAndNumber": "15 Theobalds Road",
    "zip": "WC1X 8SL",
    "businessId": 1451884,
    "addressExtra": null
  },
  {
    "id": 3362584,
    "identifier": "10778",
    "googlePlaceId": "ChIJQwjgtl8ddkgR2i5oYfQ3ues",
    "lat": 51.5472836,
    "lng": -0.07575948,
    "name": "Pret A Manger",
    "country": "UK",
    "city": "London",
    "province": "Greater London",
    "streetAndNumber": "Kingsland High Street",
    "zip": "E8 2JS",
    "businessId": 1451884,
    "addressExtra": "Western Curve, Dalston"
  },
  {
    "id": 3362589,
    "identifier": "10750",
    "googlePlaceId": "ChIJZdT2Ex4FdkgR6Fb_9bxMGa4",
    "lat": 51.5080668,
    "lng": -0.0950272,
    "name": "Pret A Manger",
    "country": "UK",
    "city": "London",
    "province": "Greater London",
    "streetAndNumber": "2A Southwark Bridge Road",
    "zip": "SE1 9HA",
    "businessId": 1451884,
    "addressExtra": "Unit 3,Bankside"
  },
  {
    "id": 3362591,
    "identifier": "85",
    "googlePlaceId": "ChIJ5ZQBYdwEdkgROTnQK-xNEls",
    "lat": 51.51505727,
    "lng": -0.15461801,
    "name": "Pret A Manger",
    "country": "UK",
    "city": "London",
    "province": "Greater London",
    "streetAndNumber": "Orchard Street",
    "zip": "W1H 6HJ",
    "businessId": 1451884,
    "addressExtra": "Unit 3, Portman Square House"
  },
  {
    "id": 3362599,
    "identifier": "10768",
    "googlePlaceId": "ChIJjYGW1pMddkgRWge4ebDVbic",
    "lat": 51.5205175,
    "lng": -0.0894169,
    "name": "Pret A Manger",
    "country": "UK",
    "city": "London",
    "province": "Greater London",
    "streetAndNumber": "70 Chiswell Street",
    "zip": "EC1Y 4AB",
    "businessId": 1451884,
    "addressExtra": null
  },
  {
    "id": 3362600,
    "identifier": "10461",
    "googlePlaceId": "ChIJD4Ki7OoLdkgRT-bQiv6uZFI",
    "lat": 51.5081307,
    "lng": -0.0792881,
    "name": "Pret A Manger",
    "country": "UK",
    "city": "London",
    "province": "Greater London",
    "streetAndNumber": "1 Three Quays Walk",
    "zip": "EC3R 6AH",
    "businessId": 1451884,
    "addressExtra": "Lower Thames Street"
  },
  {
    "id": 3362606,
    "identifier": "74",
    "googlePlaceId": "ChIJ_4zMTk0DdkgRXQtbqq49y-E",
    "lat": 51.5147144,
    "lng": -0.0810238,
    "name": "Pret A Manger",
    "country": "UK",
    "city": "London",
    "province": "Greater London",
    "streetAndNumber": "25 Saint Mary Axe",
    "zip": "EC3A 8AA",
    "businessId": 1451884,
    "addressExtra": null
  },
  {
    "id": 3362608,
    "identifier": "10580",
    "googlePlaceId": "ChIJjRFTJGgFdkgRba5rK1FUVzA",
    "lat": 51.49349409,
    "lng": -0.17424993,
    "name": "Pret A Manger",
    "country": "UK",
    "city": "London",
    "province": "Greater London",
    "streetAndNumber": "Old Brompton Road",
    "zip": "SW7 2NB",
    "businessId": 1451884,
    "addressExtra": "South Kensington Tube"
  },
  {
    "id": 3362611,
    "identifier": "10181",
    "googlePlaceId": "ChIJuwqRZdMadkgRATbxCKXuS8g",
    "lat": 51.5167416,
    "lng": -0.147475,
    "name": "Pret A Manger",
    "country": "UK",
    "city": "London",
    "province": "Greater London",
    "streetAndNumber": "24 Wigmore Street",
    "zip": "W1U 2RJ",
    "businessId": 1451884,
    "addressExtra": null
  },
  {
    "id": 3362616,
    "identifier": "10333",
    "googlePlaceId": "ChIJt9Ib5ikFdkgREeL9ioPdO8E",
    "lat": 51.5066547,
    "lng": -0.1435076,
    "name": "Pret A Manger",
    "country": "UK",
    "city": "London",
    "province": "Greater London",
    "streetAndNumber": "81 Piccadilly",
    "zip": "W1J 8HY",
    "businessId": 1451884,
    "addressExtra": null
  },
  {
    "id": 3362622,
    "identifier": "10166",
    "googlePlaceId": "ChIJo5Oc1NwEdkgROdEe96rtXB0",
    "lat": 51.4968357,
    "lng": -0.1291979,
    "name": "Pret A Manger",
    "country": "UK",
    "city": "London",
    "province": "Greater London",
    "streetAndNumber": "47 Great Peter Street",
    "zip": "SW1P 3LT",
    "businessId": 1451884,
    "addressExtra": null
  },
  {
    "id": 3362624,
    "identifier": "50",
    "googlePlaceId": "ChIJL9rDBVIDdkgRdHFJuE3mlPw",
    "lat": 51.510212,
    "lng": -0.0825844,
    "name": "Pret A Manger",
    "country": "UK",
    "city": "London",
    "province": "Greater London",
    "streetAndNumber": "1 Great Tower Street",
    "zip": "EC3R 5AA",
    "businessId": 1451884,
    "addressExtra": null
  },
  {
    "id": 3362625,
    "identifier": "10222",
    "googlePlaceId": "ChIJswLrE9EEdkgRj-RlQ7iHX-s",
    "lat": 51.5082595,
    "lng": -0.132851,
    "name": "Pret A Manger",
    "country": "UK",
    "city": "London",
    "province": "Greater London",
    "streetAndNumber": "Retail Unit 2 Regent Street",
    "zip": "SW1Y 4PE",
    "businessId": 1451884,
    "addressExtra": "Retail Unit 2"
  },
  {
    "id": 3362632,
    "identifier": "10665",
    "googlePlaceId": "ChIJrVAGYTwbdkgROrML1r8ZJGQ",
    "lat": 51.531427,
    "lng": -0.126133,
    "name": "Pret A Manger",
    "country": "UK",
    "city": "London",
    "province": "Greater London",
    "streetAndNumber": "Euston Road",
    "zip": "N1C 4QL",
    "businessId": 1451884,
    "addressExtra": "St Pancras International Station, Unit 61"
  },
  {
    "id": 3362633,
    "identifier": "10469",
    "googlePlaceId": "ChIJ-wsOCDAbdkgRFTREBepm1rg",
    "lat": 51.525418,
    "lng": -0.128429,
    "name": "Pret A Manger",
    "country": "UK",
    "city": "London",
    "province": "Greater London",
    "streetAndNumber": "Woburn Walk",
    "zip": "WC1H 9LT",
    "businessId": 1451884,
    "addressExtra": "Unit 2, Lynton House"
  },
  {
    "id": 3362634,
    "identifier": "10186",
    "googlePlaceId": "ChIJq9JmUkcDdkgRWoKQ0Iw-DDk",
    "lat": 51.5047554,
    "lng": -0.0897945,
    "name": "Pret A Manger",
    "country": "UK",
    "city": "London",
    "province": "Greater London",
    "streetAndNumber": "51 Borough High Street",
    "zip": "SE1 1NB",
    "businessId": 1451884,
    "addressExtra": null
  },
  {
    "id": 3362635,
    "identifier": "57",
    "googlePlaceId": "ChIJd5n3WbIcdkgR-rHD0tGNSQM",
    "lat": 51.5179108,
    "lng": -0.0797849,
    "name": "Pret A Manger",
    "country": "UK",
    "city": "London",
    "province": "Greater London",
    "streetAndNumber": "192 Bishopsgate",
    "zip": "EC2M 4NR",
    "businessId": 1451884,
    "addressExtra": null
  },
  {
    "id": 3362637,
    "identifier": "10540",
    "googlePlaceId": "ChIJPY80wiAFdkgRiK37WTUdMzE",
    "lat": 51.49808713,
    "lng": -0.14270927,
    "name": "Pret A Manger",
    "country": "UK",
    "city": "London",
    "province": "Greater London",
    "streetAndNumber": "10 Bressenden Place",
    "zip": "SW1E 5DU",
    "businessId": 1451884,
    "addressExtra": null
  },
  {
    "id": 3362639,
    "identifier": "10187",
    "googlePlaceId": "ChIJLx1DIiAFdkgRKPts4r5M_4A",
    "lat": 51.4943291,
    "lng": -0.1424848,
    "name": "Pret A Manger",
    "country": "UK",
    "city": "London",
    "province": "Greater London",
    "streetAndNumber": "129A Wilton Road",
    "zip": "SW1V 1JZ",
    "businessId": 1451884,
    "addressExtra": null
  },
  {
    "id": 3362640,
    "identifier": "10185",
    "googlePlaceId": "ChIJqfHHE7AcdkgRJXl_L7MOKcg",
    "lat": 51.524587,
    "lng": -0.08116903,
    "name": "Pret A Manger",
    "country": "UK",
    "city": "London",
    "province": "Greater London",
    "streetAndNumber": "57 Great Eastern Street",
    "zip": "EC2A 3QD",
    "businessId": 1451884,
    "addressExtra": null
  },
  {
    "id": 3362642,
    "identifier": "58",
    "googlePlaceId": "ChIJ7_INYEsDdkgRayI8bBaLrzU",
    "lat": 51.51363,
    "lng": -0.07623,
    "name": "Pret A Manger",
    "country": "UK",
    "city": "London",
    "province": "Greater London",
    "streetAndNumber": "85 Aldgate High Street",
    "zip": "EC3N 1LH",
    "businessId": 1451884,
    "addressExtra": null
  },
  {
    "id": 3362643,
    "identifier": "10743",
    "googlePlaceId": "ChIJez-ZLBYbdkgRs6tY5hwEJoM",
    "lat": 51.5200923,
    "lng": -0.1088443,
    "name": "Pret A Manger",
    "country": "UK",
    "city": "London",
    "province": "Greater London",
    "streetAndNumber": "78 Hatton Garden",
    "zip": "EC1N 8JS",
    "businessId": 1451884,
    "addressExtra": null
  },
  {
    "id": 3362644,
    "identifier": "10753",
    "googlePlaceId": "ChIJnU6WizobdkgR-mCD7owgYFE",
    "lat": 51.52431229,
    "lng": -0.1423136,
    "name": "Pret A Manger",
    "country": "UK",
    "city": "London",
    "province": "Greater London",
    "streetAndNumber": "350 Euston Road",
    "zip": "NW1 3AX",
    "businessId": 1451884,
    "addressExtra": "Regent's Place"
  },
  {
    "id": 3362647,
    "identifier": "10235",
    "googlePlaceId": "ChIJWXpFfdUEdkgRIo-ZGC5sCJU",
    "lat": 51.5127923,
    "lng": -0.1409564,
    "name": "Pret A Manger",
    "country": "UK",
    "city": "London",
    "province": "Greater London",
    "streetAndNumber": "61-65 Conduit Street",
    "zip": "W1S 2GB",
    "businessId": 1451884,
    "addressExtra": null
  },
  {
    "id": 3362653,
    "identifier": "10238",
    "googlePlaceId": "ChIJmx_6b7cIdkgRPY12wpm6kPA",
    "lat": 51.4209551,
    "lng": -0.2073728,
    "name": "Pret A Manger",
    "country": "UK",
    "city": "London",
    "province": "Greater London",
    "streetAndNumber": "4 Wimbledon Hill Road",
    "zip": "SW19 7NS",
    "businessId": 1451884,
    "addressExtra": "Wimbledon"
  },
  {
    "id": 3362655,
    "identifier": "3",
    "googlePlaceId": "ChIJiSQ5j0sbdkgRo8ECgQ2T9bM",
    "lat": 51.5181837,
    "lng": -0.1127135,
    "name": "Pret A Manger",
    "country": "UK",
    "city": "London",
    "province": "Greater London",
    "streetAndNumber": "319 High Holborn",
    "zip": "WC1V 7PU",
    "businessId": 1451884,
    "addressExtra": null
  },
  {
    "id": 3362657,
    "identifier": "10606",
    "googlePlaceId": "ChIJpbFd3ZIPdkgRBdG_J84pZ-g",
    "lat": 51.49446758,
    "lng": -0.21250883,
    "name": "Pret A Manger",
    "country": "UK",
    "city": "London",
    "province": "Greater London",
    "streetAndNumber": "119 Hammersmith Road",
    "zip": "W14 0QH",
    "businessId": 1451884,
    "addressExtra": "Unit 5, Kennedy House"
  },
  {
    "id": 3362659,
    "identifier": "10273",
    "googlePlaceId": "ChIJw5yi1s4adkgRJvDXORsKbcU",
    "lat": 51.5228759,
    "lng": -0.1580332,
    "name": "Pret A Manger",
    "country": "UK",
    "city": "London",
    "province": "Greater London",
    "streetAndNumber": "211-213 Baker Street",
    "zip": "NW1 6UY",
    "businessId": 1451884,
    "addressExtra": null
  },
  {
    "id": 3362660,
    "identifier": "10511",
    "googlePlaceId": "ChIJyfBAUWEPdkgR42gKJBLWrhc",
    "lat": 51.4565325,
    "lng": -0.1931406,
    "name": "Pret A Manger",
    "country": "UK",
    "city": "London",
    "province": "Greater London",
    "streetAndNumber": "2 Garratt Lane",
    "zip": "SW18 4TF",
    "businessId": 1451884,
    "addressExtra": "Southside Shopping Centre Unit 86, Wandsworth"
  },
  {
    "id": 3362661,
    "identifier": "10741",
    "googlePlaceId": "ChIJg58oDbsddkgRFCVygd-9yms",
    "lat": 51.5187839,
    "lng": -0.0882404,
    "name": "Pret A Manger",
    "country": "UK",
    "city": "London",
    "province": "Greater London",
    "streetAndNumber": "143-171 Moorgate",
    "zip": "EC2M 6XB",
    "businessId": 1451884,
    "addressExtra": null
  },
  {
    "id": 3362662,
    "identifier": "65",
    "googlePlaceId": "ChIJARwD3ywFdkgRQRdfcmApIg0",
    "lat": 51.5137898,
    "lng": -0.1495888,
    "name": "Pret A Manger",
    "country": "UK",
    "city": "London",
    "province": "Greater London",
    "streetAndNumber": "381 Oxford Street",
    "zip": "W1C 2JS",
    "businessId": 1451884,
    "addressExtra": "Unit G15, West One Shopping Centre"
  },
  {
    "id": 3362663,
    "identifier": "10237",
    "googlePlaceId": "ChIJlWWt0zMddkgRJmulLm1k5VI",
    "lat": 51.52075169,
    "lng": -0.07928689,
    "name": "Pret A Manger",
    "country": "UK",
    "city": "London",
    "province": "Greater London",
    "streetAndNumber": "201 Bishopsgate",
    "zip": "EC2M 3AB",
    "businessId": 1451884,
    "addressExtra": "Units 1 and 2"
  },
  {
    "id": 3362664,
    "identifier": "10696",
    "googlePlaceId": "ChIJkQ5dPFobdkgRi0XN3cF_mmY",
    "lat": 51.54586384,
    "lng": -0.10345024,
    "name": "Pret A Manger",
    "country": "UK",
    "city": "London",
    "province": "Greater London",
    "streetAndNumber": "257-258 Upper Street",
    "zip": "N1 1RU",
    "businessId": 1451884,
    "addressExtra": null
  },
  {
    "id": 3362665,
    "identifier": "10623",
    "googlePlaceId": "ChIJjSoDpOYddkgRCliNiuHFE74",
    "lat": 51.5413728,
    "lng": -0.0093168,
    "name": "Pret A Manger",
    "country": "UK",
    "city": "London",
    "province": "Greater London",
    "streetAndNumber": "Endeavour Square",
    "zip": "E20 1GL",
    "businessId": 1451884,
    "addressExtra": "Stratford International Quarter"
  },
  {
    "id": 3362667,
    "identifier": "10274",
    "googlePlaceId": "ChIJiYD0MrMcdkgR4_c9QSB_i5A",
    "lat": 51.5152008,
    "lng": -0.078125,
    "name": "Pret A Manger",
    "country": "UK",
    "city": "London",
    "province": "Greater London",
    "streetAndNumber": "133 Houndsditch",
    "zip": "EC3A 7BX",
    "businessId": 1451884,
    "addressExtra": null
  },
  {
    "id": 3362668,
    "identifier": "10108",
    "googlePlaceId": "ChIJE9OkjLcPdkgRT05l1degv8U",
    "lat": 51.49239676,
    "lng": -0.22337689,
    "name": "Pret A Manger",
    "country": "UK",
    "city": "London",
    "province": "Greater London",
    "streetAndNumber": "A219",
    "zip": "W6 9YE",
    "businessId": 1451884,
    "addressExtra": "Unit 30, Broadway Shopping Centre"
  },
  {
    "id": 3362671,
    "identifier": "10426",
    "googlePlaceId": "ChIJt7RWbVUDdkgRyH4oVLXR2Fo",
    "lat": 51.5134092007999,
    "lng": -0.091684502137973,
    "name": "Pret A Manger",
    "country": "UK",
    "city": "London",
    "province": "Greater London",
    "streetAndNumber": "90 Queen Street",
    "zip": "EC4N 1SA",
    "businessId": 1451884,
    "addressExtra": null
  },
  {
    "id": 3362673,
    "identifier": "10296",
    "googlePlaceId": "ChIJ7xPe-0wbdkgR_HpJaAU2cgM",
    "lat": 51.515906,
    "lng": -0.109562,
    "name": "Pret A Manger",
    "country": "UK",
    "city": "London",
    "province": "Greater London",
    "streetAndNumber": "110 Fetter Lane",
    "zip": "EC4A 1ES",
    "businessId": 1451884,
    "addressExtra": null
  },
  {
    "id": 3362675,
    "identifier": "80",
    "googlePlaceId": "ChIJy7I4rbEEdkgRujW-okIbjKk",
    "lat": 51.5071699,
    "lng": -0.1078545,
    "name": "Pret A Manger",
    "country": "UK",
    "city": "London",
    "province": "Greater London",
    "streetAndNumber": "58-60 Stamford Street",
    "zip": "SE1 9LX",
    "businessId": 1451884,
    "addressExtra": null
  },
  {
    "id": 3362676,
    "identifier": "10660",
    "googlePlaceId": "ChIJWT2udB8QdkgRsEJTHJWODlE",
    "lat": 51.51784776,
    "lng": -0.21003508,
    "name": "Pret A Manger",
    "country": "UK",
    "city": "London",
    "province": "Greater London",
    "streetAndNumber": "140 Ladbroke Grove",
    "zip": "W10 5NE",
    "businessId": 1451884,
    "addressExtra": null
  },
  {
    "id": 3362678,
    "identifier": "10752",
    "googlePlaceId": "ChIJg3QrniAFdkgR2iXgyLkTrFM",
    "lat": 51.49934742,
    "lng": -0.16468526,
    "name": "Pret A Manger",
    "country": "UK",
    "city": "London",
    "province": "Greater London",
    "streetAndNumber": "106-108 Brompton Road",
    "zip": "SW3 1JJ",
    "businessId": 1451884,
    "addressExtra": null
  },
  {
    "id": 3362679,
    "identifier": "81",
    "googlePlaceId": "ChIJ7WpSQNUEdkgRgPiWpyhHqr0",
    "lat": 51.5137561,
    "lng": -0.1396972,
    "name": "Pret A Manger",
    "country": "UK",
    "city": "London",
    "province": "Greater London",
    "streetAndNumber": "27-28 Great Marlborough Street",
    "zip": "W1F 7HY",
    "businessId": 1451884,
    "addressExtra": null
  },
  {
    "id": 3362680,
    "identifier": "10295",
    "googlePlaceId": "ChIJ2_j7bh0bdkgRZWKalwLlcvI",
    "lat": 51.5192202,
    "lng": -0.18009402,
    "name": "Pret A Manger",
    "country": "UK",
    "city": "London",
    "province": "Greater London",
    "streetAndNumber": "4 Sheldon Square",
    "zip": "W2 6EZ",
    "businessId": 1451884,
    "addressExtra": "Unit 8 Terrace Level"
  },
  {
    "id": 3362681,
    "identifier": "10711",
    "googlePlaceId": "ChIJn0sdnq0adkgRpGeQ9Z9IP0I",
    "lat": 51.5166744,
    "lng": -0.1769328,
    "name": "Pret A Manger",
    "country": "UK",
    "city": "London",
    "province": "Greater London",
    "streetAndNumber": "Paddington Station",
    "zip": "W2 1DA",
    "businessId": 1451884,
    "addressExtra": "Platform 12"
  },
  {
    "id": 3362684,
    "identifier": "10712",
    "googlePlaceId": "ChIJwVD912sbdkgR6mxL31GXmC8",
    "lat": 51.52253148,
    "lng": -0.16336733,
    "name": "Pret A Manger",
    "country": "UK",
    "city": "London",
    "province": "Greater London",
    "streetAndNumber": "Melcombe Place",
    "zip": "NW1 6JJ",
    "businessId": 1451884,
    "addressExtra": "Unit 5, Marylebone Railway Station"
  },
  {
    "id": 3362686,
    "identifier": "10284",
    "googlePlaceId": "ChIJ3ex31SwFdkgROME1zALRhSU",
    "lat": 51.5150324,
    "lng": -0.1500155,
    "name": "Pret A Manger",
    "country": "UK",
    "city": "London",
    "province": "Greater London",
    "streetAndNumber": "Gee's Court",
    "zip": "W1U 1JF",
    "businessId": 1451884,
    "addressExtra": "Unit 3 and 4"
  },
  {
    "id": 3362687,
    "identifier": "10581",
    "googlePlaceId": "ChIJu1sEW7cCdkgRrhUNtKzOo4w",
    "lat": 51.5011677,
    "lng": -0.0172657,
    "name": "Pret A Manger",
    "country": "UK",
    "city": "London",
    "province": "Greater London",
    "streetAndNumber": "Marsh Wall",
    "zip": "E14 9SH",
    "businessId": 1451884,
    "addressExtra": "Retail Unit, SQP3, South Quay"
  },
  {
    "id": 3362688,
    "identifier": "10212",
    "googlePlaceId": "ChIJrXoRH_O9cEgRSVPByQ5q7UM",
    "lat": 51.5176865,
    "lng": -0.121175,
    "name": "Pret A Manger",
    "country": "UK",
    "city": "London",
    "province": "Greater London",
    "streetAndNumber": "125 High Holborn",
    "zip": "WC1V 6AN",
    "businessId": 1451884,
    "addressExtra": null
  },
  {
    "id": 3362689,
    "identifier": "177",
    "googlePlaceId": "ChIJB4Qij0sDdkgRoStcfL92tnk",
    "lat": 51.51148784,
    "lng": -0.07564366,
    "name": "Pret A Manger",
    "country": "UK",
    "city": "London",
    "province": "Greater London",
    "streetAndNumber": "3 America Square",
    "zip": "EC3N 2LR",
    "businessId": 1451884,
    "addressExtra": null
  },
  {
    "id": 3362691,
    "identifier": "10604",
    "googlePlaceId": "ChIJmSdI7RgFdkgRM8ZCyuMbRwA",
    "lat": 51.49246256,
    "lng": -0.14848442,
    "name": "Pret A Manger",
    "country": "UK",
    "city": "London",
    "province": "Greater London",
    "streetAndNumber": "164 Buckingham Palace Road",
    "zip": "SW1W 9TP",
    "businessId": 1451884,
    "addressExtra": "Victoria Coach Station"
  },
  {
    "id": 3362692,
    "identifier": "10666",
    "googlePlaceId": "ChIJL1ZeLGIddkgRBom55Is59sc",
    "lat": 51.5412813,
    "lng": -0.0034123,
    "name": "Pret A Manger",
    "country": "UK",
    "city": "London",
    "province": "Greater London",
    "streetAndNumber": null,
    "zip": "E15 1AZ",
    "businessId": 1451884,
    "addressExtra": null
  },
  {
    "id": 3362693,
    "identifier": "10292",
    "googlePlaceId": "ChIJoc08TN0EdkgRQetqjUducc4",
    "lat": 51.4947145,
    "lng": -0.1295317,
    "name": "Pret A Manger",
    "country": "UK",
    "city": "London",
    "province": "Greater London",
    "streetAndNumber": "19-23 Horseferry Road",
    "zip": "SW1P 2AA",
    "businessId": 1451884,
    "addressExtra": "Unit 12, Great Minster"
  },
  {
    "id": 3362694,
    "identifier": "10759",
    "googlePlaceId": "ChIJv9zKgE8DdkgRM99ijeRaOZM",
    "lat": 51.51735514,
    "lng": -0.08250872,
    "name": "Pret A Manger",
    "country": "UK",
    "city": "London",
    "province": "Greater London",
    "streetAndNumber": "19-20 Liverpool Street",
    "zip": "EC2M 7PD",
    "businessId": 1451884,
    "addressExtra": null
  },
  {
    "id": 3362696,
    "identifier": "10287",
    "googlePlaceId": "ChIJDWkcwkYbdkgReIaK3viN0xM",
    "lat": 51.5157599,
    "lng": -0.1042396,
    "name": "Pret A Manger",
    "country": "UK",
    "city": "London",
    "province": "Greater London",
    "streetAndNumber": "24 Farringdon Street",
    "zip": "EC4A 4AB",
    "businessId": 1451884,
    "addressExtra": "Nexus Place"
  },
  {
    "id": 3362697,
    "identifier": "10220",
    "googlePlaceId": "ChIJNaPFDYio2EcRxBDHlKJr14I",
    "lat": 51.5036156,
    "lng": 0.0497659,
    "name": "Pret A Manger",
    "country": "UK",
    "city": "London",
    "province": "Greater London",
    "streetAndNumber": "Hartmann Road",
    "zip": "E16 2PB",
    "businessId": 1451884,
    "addressExtra": "Royal Docks–± London City Airport"
  },
  {
    "id": 3362700,
    "identifier": "10289",
    "googlePlaceId": "ChIJ3xfbA7UEdkgRWr1cZKgjF6w",
    "lat": 51.5103242,
    "lng": -0.1214387,
    "name": "Pret A Manger",
    "country": "UK",
    "city": "London",
    "province": "Greater London",
    "streetAndNumber": "87-88 Strand",
    "zip": "WC2R 0DW",
    "businessId": 1451884,
    "addressExtra": null
  },
  {
    "id": 3362702,
    "identifier": "179",
    "googlePlaceId": "ChIJY7uxr64cdkgRvNLezzjPV2Q",
    "lat": 51.52440832,
    "lng": -0.08726891,
    "name": "Pret A Manger",
    "country": "UK",
    "city": "London",
    "province": "Greater London",
    "streetAndNumber": "City Road",
    "zip": "EC1Y 1HQ",
    "businessId": 1451884,
    "addressExtra": "Unit 1, Oliver's Yard"
  },
  {
    "id": 3362705,
    "identifier": "10738",
    "googlePlaceId": "ChIJ26O4xQIHdkgRTiTUOPcHfN4",
    "lat": 51.42804,
    "lng": -0.16755,
    "name": "Pret A Manger",
    "country": "UK",
    "city": "London",
    "province": "Greater London",
    "streetAndNumber": "3 Mitcham Road",
    "zip": "SW17 9PA",
    "businessId": 1451884,
    "addressExtra": null
  },
  {
    "id": 3362707,
    "identifier": "10662",
    "googlePlaceId": "ChIJrVAGYTwbdkgROrML1r8ZJGQ",
    "lat": 51.5315184,
    "lng": -0.1261342,
    "name": "Pret A Manger",
    "country": "UK",
    "city": "London",
    "province": "Greater London",
    "streetAndNumber": "Euston Road",
    "zip": "NW1 2QP",
    "businessId": 1451884,
    "addressExtra": "Unit 29, Eurostar Departure Lounge"
  },
  {
    "id": 3362708,
    "identifier": "275",
    "googlePlaceId": "ChIJ2cV9LYQPdkgRPbUoUoYGCp0",
    "lat": 51.48034865,
    "lng": -0.19451943,
    "name": "Pret A Manger",
    "country": "UK",
    "city": "London",
    "province": "Greater London",
    "streetAndNumber": "Fulham Road",
    "zip": "SW6 1BW",
    "businessId": 1451884,
    "addressExtra": "Fulham Broadway Retail Centre, Unit 5"
  },
  {
    "id": 3362713,
    "identifier": "10583",
    "googlePlaceId": "ChIJ1ylMJSAbdkgREpSs3IGDIV8",
    "lat": 51.5348448,
    "lng": -0.1384267,
    "name": "Pret A Manger",
    "country": "UK",
    "city": "London",
    "province": "Greater London",
    "streetAndNumber": "2-4 Camden High Street",
    "zip": "NW1 0JH",
    "businessId": 1451884,
    "addressExtra": null
  },
  {
    "id": 3362717,
    "identifier": "10399",
    "googlePlaceId": "ChIJ00qkU9MadkgRLkBUjbh0Dko",
    "lat": 51.51518008,
    "lng": -0.14697921,
    "name": "Pret A Manger",
    "country": "UK",
    "city": "London",
    "province": "Greater London",
    "streetAndNumber": "5 Vere Street",
    "zip": "W1G 0DJ",
    "businessId": 1451884,
    "addressExtra": null
  },
  {
    "id": 3362719,
    "identifier": "10211",
    "googlePlaceId": "ChIJQWeCq1cDdkgRRbujoFQNFEs",
    "lat": 51.5068357,
    "lng": -0.0912484,
    "name": "Pret A Manger",
    "country": "UK",
    "city": "London",
    "province": "Greater London",
    "streetAndNumber": "40 Stoney Street",
    "zip": "SE1 9LB",
    "businessId": 1451884,
    "addressExtra": null
  },
  {
    "id": 3362720,
    "identifier": "292",
    "googlePlaceId": "ChIJszXIgE0DdkgRirQHxH4olcE",
    "lat": 51.51187442,
    "lng": -0.08166179,
    "name": "Pret A Manger",
    "country": "UK",
    "city": "London",
    "province": "Greater London",
    "streetAndNumber": "125-135 Fenchurch Street",
    "zip": "EC3M 5DJ",
    "businessId": 1451884,
    "addressExtra": "Unit C, Fountain House"
  },
  {
    "id": 3362723,
    "identifier": "10705",
    "googlePlaceId": "ChIJ1bnfkWkPdkgR1TQYIsYeEV8",
    "lat": 51.507197,
    "lng": -0.206148,
    "name": "Pret A Manger",
    "country": "UK",
    "city": "London",
    "province": "Greater London",
    "streetAndNumber": "84-86 Holland Park Avenue",
    "zip": "W11 3RB",
    "businessId": 1451884,
    "addressExtra": null
  },
  {
    "id": 3362728,
    "identifier": "10215",
    "googlePlaceId": "ChIJteVO-VQbdkgR1FcXi-nVBCw",
    "lat": 51.51756481,
    "lng": -0.09758021,
    "name": "Pret A Manger",
    "country": "UK",
    "city": "London",
    "province": "Greater London",
    "streetAndNumber": "200 Aldersgate Street",
    "zip": "EC1A 4HD",
    "businessId": 1451884,
    "addressExtra": "Unit 1"
  },
  {
    "id": 3362731,
    "identifier": "10410",
    "googlePlaceId": "ChIJ-3eb36QEdkgRYY2eTxRVCk4",
    "lat": 51.5017164988996,
    "lng": -0.104305257565902,
    "name": "Pret A Manger",
    "country": "UK",
    "city": "London",
    "province": "Greater London",
    "streetAndNumber": "157-168 Blackfriars Road",
    "zip": "SE1 8EZ",
    "businessId": 1451884,
    "addressExtra": null
  },
  {
    "id": 3362732,
    "identifier": "10221",
    "googlePlaceId": "ChIJu3dr708DdkgRzC-GCwWdwM4",
    "lat": 51.5045414,
    "lng": -0.08148789,
    "name": "Pret A Manger",
    "country": "UK",
    "city": "London",
    "province": "Greater London",
    "streetAndNumber": "7 More London Riverside",
    "zip": "SE1 2RT",
    "businessId": 1451884,
    "addressExtra": "London Riverside"
  },
  {
    "id": 3362733,
    "identifier": "10244",
    "googlePlaceId": "ChIJgXmQoyEFdkgRVy3kOIiWf98",
    "lat": 51.4946954,
    "lng": -0.1458012,
    "name": "Pret A Manger",
    "country": "UK",
    "city": "London",
    "province": "Greater London",
    "streetAndNumber": "Buckingham Palace Road",
    "zip": "SW1W 9SJ",
    "businessId": 1451884,
    "addressExtra": "Victoria Place Shopping Centre, Unit 2"
  },
  {
    "id": 3362735,
    "identifier": "10424",
    "googlePlaceId": "ChIJQ0aKfqscdkgRYoLYHYEPPBk",
    "lat": 51.51738659,
    "lng": -0.08795169,
    "name": "Pret A Manger",
    "country": "UK",
    "city": "London",
    "province": "Greater London",
    "streetAndNumber": "165-166 London Wall",
    "zip": "EC2M 5QD",
    "businessId": 1451884,
    "addressExtra": null
  },
  {
    "id": 3362737,
    "identifier": "10708",
    "googlePlaceId": "ChIJ640O8FcddkgRnwH2hodAqDI",
    "lat": 51.5267733,
    "lng": -0.0783155,
    "name": "Pret A Manger",
    "country": "UK",
    "city": "London",
    "province": "Greater London",
    "streetAndNumber": "128 Shoreditch High Street",
    "zip": "E1 6JE",
    "businessId": 1451884,
    "addressExtra": null
  },
  {
    "id": 3362738,
    "identifier": "10251",
    "googlePlaceId": "ChIJD8Q88DIbdkgRCqYbC-I1YZM",
    "lat": 51.5170143,
    "lng": -0.1272275,
    "name": "Pret A Manger",
    "country": "UK",
    "city": "London",
    "province": "Greater London",
    "streetAndNumber": "64-68 New Oxford Street",
    "zip": "WC1A 1AZ",
    "businessId": 1451884,
    "addressExtra": null
  },
  {
    "id": 3362740,
    "identifier": "10223",
    "googlePlaceId": "ChIJgcvzpasEdkgR0WjIz7W1-0I",
    "lat": 51.5121032,
    "lng": -0.0978839,
    "name": "Pret A Manger",
    "country": "UK",
    "city": "London",
    "province": "Greater London",
    "streetAndNumber": "128 Queen Victoria Street",
    "zip": "EC4V 4BY",
    "businessId": 1451884,
    "addressExtra": "Old Change House"
  },
  {
    "id": 3362741,
    "identifier": "10194",
    "googlePlaceId": "ChIJE10tFascdkgRb5kUtFURO8s",
    "lat": 51.5164199,
    "lng": -0.0895298,
    "name": "Pret A Manger",
    "country": "UK",
    "city": "London",
    "province": "Greater London",
    "streetAndNumber": "67 Coleman Street",
    "zip": "EC2R 5BT",
    "businessId": 1451884,
    "addressExtra": null
  },
  {
    "id": 3362742,
    "identifier": "10456",
    "googlePlaceId": "ChIJB45quSsbdkgR3nXUGFYtWKI",
    "lat": 51.5186638,
    "lng": -0.1372491,
    "name": "Pret A Manger",
    "country": "UK",
    "city": "London",
    "province": "Greater London",
    "streetAndNumber": "5-11 Mortimer Street",
    "zip": "W1T 3JB",
    "businessId": 1451884,
    "addressExtra": "Network House"
  },
  {
    "id": 3362744,
    "identifier": "10262",
    "googlePlaceId": "ChIJf9hrZDYDdkgRj3bMdanAEFM",
    "lat": 51.50812864,
    "lng": -0.06816988,
    "name": "Pret A Manger",
    "country": "UK",
    "city": "London",
    "province": "Greater London",
    "streetAndNumber": "Retail Unit 1 Thomas More Square",
    "zip": "E1W 1YN",
    "businessId": 1451884,
    "addressExtra": "Retail Unit 1"
  },
  {
    "id": 3362746,
    "identifier": "12",
    "googlePlaceId": "ChIJC_nmpM0EdkgRRvUA-s8mjyM",
    "lat": 51.5116009,
    "lng": -0.1274809,
    "name": "Pret A Manger",
    "country": "UK",
    "city": "London",
    "province": "Greater London",
    "streetAndNumber": "77-78 Saint Martin's Lane",
    "zip": "WC2N 4AA",
    "businessId": 1451884,
    "addressExtra": null
  },
  {
    "id": 3362747,
    "identifier": "10303",
    "googlePlaceId": "ChIJ_zYPnzQFdkgRlWYlzefBO4o",
    "lat": 51.518928,
    "lng": -0.1692863,
    "name": "Pret A Manger",
    "country": "UK",
    "city": "London",
    "province": "Greater London",
    "streetAndNumber": "3-5 Praed Street",
    "zip": "W2 1NJ",
    "businessId": 1451884,
    "addressExtra": null
  },
  {
    "id": 3362752,
    "identifier": "10365",
    "googlePlaceId": "ChIJNcx9g2QFdkgR6jhTYfOyIKc",
    "lat": 51.485408,
    "lng": -0.1816043,
    "name": "Pret A Manger",
    "country": "UK",
    "city": "London",
    "province": "Greater London",
    "streetAndNumber": "367B Fulham Road",
    "zip": "SW10 9TN",
    "businessId": 1451884,
    "addressExtra": null
  },
  {
    "id": 3362758,
    "identifier": "10605",
    "googlePlaceId": "ChIJqb2K7VUFdkgRVoMsRPon4qo",
    "lat": 51.5106746,
    "lng": -0.1872789,
    "name": "Pret A Manger",
    "country": "UK",
    "city": "London",
    "province": "Greater London",
    "streetAndNumber": "7-9 Queensway",
    "zip": "W2 4QJ",
    "businessId": 1451884,
    "addressExtra": null
  },
  {
    "id": 3362759,
    "identifier": "19",
    "googlePlaceId": "ChIJU6LqOtYEdkgRnvEzd4hFOGM",
    "lat": 51.5078158,
    "lng": -0.1400834,
    "name": "Pret A Manger",
    "country": "UK",
    "city": "London",
    "province": "Greater London",
    "streetAndNumber": "163 Piccadilly",
    "zip": "W1J 9ED",
    "businessId": 1451884,
    "addressExtra": null
  },
  {
    "id": 3362761,
    "identifier": "10544",
    "googlePlaceId": "ChIJG_uANroEdkgRgjU3RzohUaw",
    "lat": 51.5023003,
    "lng": -0.112773,
    "name": "Pret A Manger",
    "country": "UK",
    "city": "London",
    "province": "Greater London",
    "streetAndNumber": "152 Waterloo Road",
    "zip": "SE1 7AA",
    "businessId": 1451884,
    "addressExtra": null
  },
  {
    "id": 3362764,
    "identifier": "121",
    "googlePlaceId": "ChIJU5na0aoEdkgR7LvEgTv_OC4",
    "lat": 51.5145692,
    "lng": -0.0960176,
    "name": "Pret A Manger",
    "country": "UK",
    "city": "London",
    "province": "Greater London",
    "streetAndNumber": "141 Cheapside",
    "zip": "EC2V 6BJ",
    "businessId": 1451884,
    "addressExtra": null
  },
  {
    "id": 3362766,
    "identifier": "10602",
    "googlePlaceId": "ChIJLbyTyr4EdkgR6zpoXgl-HwY",
    "lat": 51.49919101,
    "lng": -0.11325905,
    "name": "Pret A Manger",
    "country": "UK",
    "city": "London",
    "province": "Greater London",
    "streetAndNumber": "111 Westminster Bridge Road",
    "zip": "SE1 7HR",
    "businessId": 1451884,
    "addressExtra": null
  },
  {
    "id": 3362768,
    "identifier": "1",
    "googlePlaceId": "ChIJtZUQWUsbdkgR_YPH8QzDGy8",
    "lat": 51.5158202,
    "lng": -0.1120312,
    "name": "Pret A Manger",
    "country": "UK",
    "city": "London",
    "province": "Greater London",
    "streetAndNumber": "83 Chancery Lane",
    "zip": "WC2A 1DD",
    "businessId": 1451884,
    "addressExtra": "Unit 6"
  },
  {
    "id": 3362769,
    "identifier": "10367",
    "googlePlaceId": "ChIJMS8zSAAbdkgRDRK7ScCbYlk",
    "lat": 51.53226002,
    "lng": -0.126561,
    "name": "Pret A Manger",
    "country": "UK",
    "city": "London",
    "province": "Greater London",
    "streetAndNumber": "Pancras Rd",
    "zip": "N1C 4AP",
    "businessId": 1451884,
    "addressExtra": "Norther Ticket Hall, Kings Cross Station"
  },
  {
    "id": 3362770,
    "identifier": "243",
    "googlePlaceId": "ChIJczM1JlQbdkgRbJ6zgiPyKuA",
    "lat": 51.52003944,
    "lng": -0.10191644,
    "name": "Pret A Manger",
    "country": "UK",
    "city": "London",
    "province": "Greater London",
    "streetAndNumber": "3-5 Saint John Street",
    "zip": "EC1M 4AA",
    "businessId": 1451884,
    "addressExtra": "Clerkenwell"
  },
  {
    "id": 3362771,
    "identifier": "10587",
    "googlePlaceId": "ChIJH8wwKoUbdkgRwEuL8GxP9nY",
    "lat": 51.5650509,
    "lng": -0.1058653,
    "name": "Pret A Manger",
    "country": "UK",
    "city": "London",
    "province": "Greater London",
    "streetAndNumber": "Arch 16 Station Place",
    "zip": "N4 2DQ",
    "businessId": 1451884,
    "addressExtra": null
  },
  {
    "id": 3362772,
    "identifier": "39",
    "googlePlaceId": "ChIJL7V5eLcCdkgRSaoQArzp6s4",
    "lat": 51.50517151,
    "lng": -0.02019024,
    "name": "Pret A Manger",
    "country": "UK",
    "city": "London",
    "province": "Greater London",
    "streetAndNumber": "Cabot Square",
    "zip": "E14 4QS",
    "businessId": 1451884,
    "addressExtra": "Canary Wharf, Unit 320, RT1 Cabot Place"
  },
  {
    "id": 3362773,
    "identifier": "10621",
    "googlePlaceId": "ChIJd_iCWdoPdkgRQn8V_Lk8-mk",
    "lat": 51.507666,
    "lng": -0.2214629,
    "name": "Pret A Manger",
    "country": "UK",
    "city": "London",
    "province": "Greater London",
    "streetAndNumber": "Ariel Way",
    "zip": "W12 7GA",
    "businessId": 1451884,
    "addressExtra": "Southern Interchange, Unit SUC303 Westfield London"
  },
  {
    "id": 3362774,
    "identifier": "10667",
    "googlePlaceId": "ChIJd_iCWdoPdkgRQn8V_Lk8-mk",
    "lat": 51.5070917,
    "lng": -0.22049998,
    "name": "Pret A Manger",
    "country": "UK",
    "city": "London",
    "province": "Greater London",
    "streetAndNumber": "Ariel Way",
    "zip": "W12 7HT",
    "businessId": 1451884,
    "addressExtra": "Unit Su2203a, Westfield Shopping Centre"
  },
  {
    "id": 3362776,
    "identifier": "10376",
    "googlePlaceId": "ChIJiYD0MrMcdkgRF4eGhkvCcBg",
    "lat": 51.5111586,
    "lng": -0.1383445,
    "name": "Pret A Manger",
    "country": "UK",
    "city": "London",
    "province": "Greater London",
    "streetAndNumber": "4 Regent Place",
    "zip": "W1B 5EA",
    "businessId": 1451884,
    "addressExtra": null
  },
  {
    "id": 3362777,
    "identifier": "10631",
    "googlePlaceId": "ChIJLVoGYE8bdkgRLRtiPmIazOM",
    "lat": 51.52566006,
    "lng": -0.10993477,
    "name": "Pret A Manger",
    "country": "UK",
    "city": "London",
    "province": "Greater London",
    "streetAndNumber": "21 Spafield Street",
    "zip": "EC1R 4QD",
    "businessId": 1451884,
    "addressExtra": "Exmouth Market"
  },
  {
    "id": 3362783,
    "identifier": "10720",
    "googlePlaceId": "ChIJeaPVnRgFdkgRnjkhAw_p1sM",
    "lat": 51.5038806,
    "lng": -0.1026117,
    "name": "Pret A Manger",
    "country": "UK",
    "city": "London",
    "province": "Greater London",
    "streetAndNumber": "202-206 Union Street",
    "zip": "SE1 0LX",
    "businessId": 1451884,
    "addressExtra": null
  },
  {
    "id": 3362784,
    "identifier": "253",
    "googlePlaceId": "ChIJgXmQoyEFdkgRVy3kOIiWf98",
    "lat": 51.49442624,
    "lng": -0.14697332,
    "name": "Pret A Manger",
    "country": "UK",
    "city": "London",
    "province": "Greater London",
    "streetAndNumber": "92 Buckingham Palace Road",
    "zip": "SW1W 0SS",
    "businessId": 1451884,
    "addressExtra": null
  },
  {
    "id": 3362785,
    "identifier": "10715",
    "googlePlaceId": "ChIJwXD8OxYbdkgR-RoI07q_X4o",
    "lat": 51.54829,
    "lng": -0.18094,
    "name": "Pret A Manger",
    "country": "UK",
    "city": "London",
    "province": "Greater London",
    "streetAndNumber": "219 Finchley Road",
    "zip": "NW3 6LP",
    "businessId": 1451884,
    "addressExtra": null
  },
  {
    "id": 3362786,
    "identifier": "10486",
    "googlePlaceId": "ChIJEf0J_boPdkgRd3Yc-tu7dc0",
    "lat": 51.4854353,
    "lng": -0.2204083,
    "name": "Pret A Manger",
    "country": "UK",
    "city": "London",
    "province": "Greater London",
    "streetAndNumber": "168-188 Fulham Palace Road",
    "zip": "W6 9PA",
    "businessId": 1451884,
    "addressExtra": null
  },
  {
    "id": 3362791,
    "identifier": "10698",
    "googlePlaceId": "ChIJZUDbbgAFdkgR5rRNvQ6_hd0",
    "lat": 51.5109324640443,
    "lng": -0.119285482424048,
    "name": "Pret A Manger",
    "country": "UK",
    "city": "London",
    "province": "Greater London",
    "streetAndNumber": "120-125 Strand",
    "zip": "WC2R 0AP",
    "businessId": 1451884,
    "addressExtra": null
  },
  {
    "id": 3362792,
    "identifier": "10693",
    "googlePlaceId": "ChIJJRSiec4EdkgRfQr4QFI51z4",
    "lat": 51.5093776,
    "lng": -0.1267583,
    "name": "Pret A Manger",
    "country": "UK",
    "city": "London",
    "province": "Greater London",
    "streetAndNumber": "7-8 Saint Martin's Place",
    "zip": "WC2N 4HA",
    "businessId": 1451884,
    "addressExtra": null
  },
  {
    "id": 3362794,
    "identifier": "254",
    "googlePlaceId": "ChIJjRFTJGgFdkgRba5rK1FUVzA",
    "lat": 51.4935407,
    "lng": -0.17427353,
    "name": "Pret A Manger",
    "country": "UK",
    "city": "London",
    "province": "Greater London",
    "streetAndNumber": "15 Old Brompton Road",
    "zip": "SW7 3HZ",
    "businessId": 1451884,
    "addressExtra": null
  },
  {
    "id": 3362795,
    "identifier": "10476",
    "googlePlaceId": "ChIJzXwWYaYcdkgR4VteOFf5tck",
    "lat": 51.52798726,
    "lng": -0.08944553,
    "name": "Pret A Manger",
    "country": "UK",
    "city": "London",
    "province": "Greater London",
    "streetAndNumber": "161 City Road",
    "zip": "EC1V 1NR",
    "businessId": 1451884,
    "addressExtra": "Eagle House"
  },
  {
    "id": 3362797,
    "identifier": "10756",
    "googlePlaceId": "ChIJ0zRRS3oFdkgRu9ivz98_zHo",
    "lat": 51.50597386,
    "lng": -0.11707268,
    "name": "Pret A Manger",
    "country": "UK",
    "city": "London",
    "province": "Greater London",
    "streetAndNumber": "Belvedere Road",
    "zip": "SE1 8XX",
    "businessId": 1451884,
    "addressExtra": "Unit 4 Royal Festival Hall"
  },
  {
    "id": 3362800,
    "identifier": "10755",
    "googlePlaceId": "ChIJFbVKK1MbdkgRbpeLmvAfA2s",
    "lat": 51.51787666,
    "lng": -0.15173055,
    "name": "Pret A Manger",
    "country": "UK",
    "city": "London",
    "province": "Greater London",
    "streetAndNumber": "1 George Street",
    "zip": "W1U 3QF",
    "businessId": 1451884,
    "addressExtra": "Ariel Way"
  },
  {
    "id": 3362802,
    "identifier": "10786",
    "googlePlaceId": "ChIJ3xfbA7UEdkgRwuZ6D8EjOAY",
    "lat": 51.51272916,
    "lng": -0.1141443,
    "name": "Pret A Manger",
    "country": "UK",
    "city": "London",
    "province": "Greater London",
    "streetAndNumber": "190 Strand",
    "zip": "WC2R 1DP",
    "businessId": 1451884,
    "addressExtra": null
  },
  {
    "id": 3362807,
    "identifier": "10378",
    "googlePlaceId": "ChIJwTXGVrIcdkgR8Nwwv9AcxsE",
    "lat": 51.52403,
    "lng": -0.07747,
    "name": "Pret A Manger",
    "country": "UK",
    "city": "London",
    "province": "Greater London",
    "streetAndNumber": "192 Shoreditch High Street",
    "zip": "E1 6HU",
    "businessId": 1451884,
    "addressExtra": null
  },
  {
    "id": 3362811,
    "identifier": "10749",
    "googlePlaceId": "ChIJQ-0g6UcFdkgRoA0Uh-lpE3Y",
    "lat": 51.508293,
    "lng": -0.136507,
    "name": "Pret A Manger",
    "country": "UK",
    "city": "London",
    "province": "Greater London",
    "streetAndNumber": "3 Duke of York Street",
    "zip": "SW1Y 6JP",
    "businessId": 1451884,
    "addressExtra": null
  },
  {
    "id": 3362812,
    "identifier": "10520",
    "googlePlaceId": "ChIJE-3oZVUDdkgR-Zwc_Bb8qVE",
    "lat": 51.5134517,
    "lng": -0.0932354,
    "name": "Pret A Manger",
    "country": "UK",
    "city": "London",
    "province": "Greater London",
    "streetAndNumber": "49-52 Bow Lane",
    "zip": "EC4M 9DJ",
    "businessId": 1451884,
    "addressExtra": null
  },
  {
    "id": 3362821,
    "identifier": "114",
    "googlePlaceId": "ChIJxYBQvCoFdkgRUYhjbwacsR8",
    "lat": 51.5138039,
    "lng": -0.1419489,
    "name": "Pret A Manger",
    "country": "UK",
    "city": "London",
    "province": "Greater London",
    "streetAndNumber": "18 Hanover Street",
    "zip": "W1S 1YN",
    "businessId": 1451884,
    "addressExtra": null
  },
  {
    "id": 3362823,
    "identifier": "10629",
    "googlePlaceId": "ChIJVVVVuAgGdkgRgP6MOi8ef78",
    "lat": 51.42669,
    "lng": -0.17558,
    "name": "Pret A Manger",
    "country": "UK",
    "city": "London",
    "province": "Greater London",
    "streetAndNumber": "Hepdon Mews",
    "zip": "SW17 0RE",
    "businessId": 1451884,
    "addressExtra": "St George's University of London, Jenner Wing, Ground Floor"
  },
  {
    "id": 3362825,
    "identifier": "107",
    "googlePlaceId": "ChIJ74r7W8sEdkgR1Tw7aLIq--U",
    "lat": 51.513926,
    "lng": -0.122915,
    "name": "Pret A Manger",
    "country": "UK",
    "city": "London",
    "province": "Greater London",
    "streetAndNumber": "65 Long Acre",
    "zip": "WC2E 9JD",
    "businessId": 1451884,
    "addressExtra": null
  },
  {
    "id": 3362827,
    "identifier": "21",
    "googlePlaceId": "ChIJv9CNnzUbdkgRS3RQQeYBOEQ",
    "lat": 51.5176072,
    "lng": -0.1189221,
    "name": "Pret A Manger",
    "country": "UK",
    "city": "London",
    "province": "Greater London",
    "streetAndNumber": "240-241 High Holborn",
    "zip": "WC1V 7DN",
    "businessId": 1451884,
    "addressExtra": null
  },
  {
    "id": 3362830,
    "identifier": "116",
    "googlePlaceId": "ChIJF0CZd-EadkgRrsY6PBnbHkk",
    "lat": 51.53812,
    "lng": -0.142214,
    "name": "Pret A Manger",
    "country": "UK",
    "city": "London",
    "province": "Greater London",
    "streetAndNumber": "157 Camden High Street",
    "zip": "NW1 7JY",
    "businessId": 1451884,
    "addressExtra": null
  },
  {
    "id": 3362833,
    "identifier": "10745",
    "googlePlaceId": "ChIJ01Q5sfUddkgRhhd8uEA26wE",
    "lat": 51.5150581,
    "lng": -0.0769397,
    "name": "Pret A Manger",
    "country": "UK",
    "city": "London",
    "province": "Greater London",
    "streetAndNumber": "2 White Kennett Street",
    "zip": "E1 7BS",
    "businessId": 1451884,
    "addressExtra": "The St Botolphs Building"
  },
  {
    "id": 3362843,
    "identifier": "10110",
    "googlePlaceId": "ChIJRUJwtqgEdkgRLx5qX2WknsA",
    "lat": 51.5057588,
    "lng": -0.0992494,
    "name": "Pret A Manger",
    "country": "UK",
    "city": "London",
    "province": "Greater London",
    "streetAndNumber": "2 Canvey Street",
    "zip": "SE1 9AN",
    "businessId": 1451884,
    "addressExtra": null
  },
  {
    "id": 3362844,
    "identifier": "319",
    "googlePlaceId": "ChIJ-QxLAF4FdkgRBIYb1kHbnD0",
    "lat": 51.49400308,
    "lng": -0.18201869,
    "name": "Pret A Manger",
    "country": "UK",
    "city": "London",
    "province": "Greater London",
    "streetAndNumber": "99 Gloucester Road",
    "zip": "SW7 4SS",
    "businessId": 1451884,
    "addressExtra": null
  },
  {
    "id": 3362845,
    "identifier": "113",
    "googlePlaceId": "ChIJs4ZaLkMbdkgRwYXx6WqloD0",
    "lat": 51.53288847,
    "lng": -0.10638551,
    "name": "Pret A Manger",
    "country": "UK",
    "city": "London",
    "province": "Greater London",
    "streetAndNumber": "27 Islington High Street",
    "zip": "N1 9LH",
    "businessId": 1451884,
    "addressExtra": null
  },
  {
    "id": 3362848,
    "identifier": "38",
    "googlePlaceId": "ChIJXTn0yM4EdkgRSaV_zGoczWw",
    "lat": 51.5082401,
    "lng": -0.1238025,
    "name": "Pret A Manger",
    "country": "UK",
    "city": "London",
    "province": "Greater London",
    "streetAndNumber": "25 Villiers Street",
    "zip": "WC2N 6ND",
    "businessId": 1451884,
    "addressExtra": null
  },
  {
    "id": 3362855,
    "identifier": "10002",
    "googlePlaceId": "ChIJxbuh4VMDdkgRb9RFQhu2VE0",
    "lat": 51.5098409,
    "lng": -0.0866542,
    "name": "Pret A Manger",
    "country": "UK",
    "city": "London",
    "province": "Greater London",
    "streetAndNumber": "43 King William Street",
    "zip": "EC4R 9AN",
    "businessId": 1451884,
    "addressExtra": null
  },
  {
    "id": 3362856,
    "identifier": "47",
    "googlePlaceId": "ChIJKURPusoEdkgRVrsJw23K0n8",
    "lat": 51.5141584,
    "lng": -0.118532,
    "name": "Pret A Manger",
    "country": "UK",
    "city": "London",
    "province": "Greater London",
    "streetAndNumber": "29-33 Kingsway",
    "zip": "WC2B 6UF",
    "businessId": 1451884,
    "addressExtra": null
  },
  {
    "id": 3362857,
    "identifier": "10779",
    "googlePlaceId": "ChIJxa4mcV4FdkgRWr2s96ox810",
    "lat": 51.49986593,
    "lng": -0.14943966,
    "name": "Pret A Manger",
    "country": "UK",
    "city": "London",
    "province": "Greater London",
    "streetAndNumber": "21-24 Grosvenor Place",
    "zip": "SW1X 7HN",
    "businessId": 1451884,
    "addressExtra": null
  },
  {
    "id": 3362859,
    "identifier": "10645",
    "googlePlaceId": "ChIJf096Ey0bdkgRXm3KzEpCKPs",
    "lat": 51.5165573907211,
    "lng": -0.130815098804287,
    "name": "Pret A Manger",
    "country": "UK",
    "city": "London",
    "province": "Greater London",
    "streetAndNumber": "Tottenham Court Road",
    "zip": "W1D 1AN",
    "businessId": 1451884,
    "addressExtra": "Unit 1, Ticket Hall, Tube Station"
  },
  {
    "id": 3362860,
    "identifier": "35",
    "googlePlaceId": "ChIJv7tN9VEbdkgRlEgDmBRWWCk",
    "lat": 51.5203373,
    "lng": -0.1043052,
    "name": "Pret A Manger",
    "country": "UK",
    "city": "London",
    "province": "Greater London",
    "streetAndNumber": "101 Turnmill Street",
    "zip": "EC1M 5QP",
    "businessId": 1451884,
    "addressExtra": null
  },
  {
    "id": 3362861,
    "identifier": "10777",
    "googlePlaceId": "ChIJY7uxr64cdkgRvNLezzjPV2Q",
    "lat": 51.52249124,
    "lng": -0.08686051,
    "name": "Pret A Manger",
    "country": "UK",
    "city": "London",
    "province": "Greater London",
    "streetAndNumber": "17 City Road",
    "zip": "EC1Y 1AG",
    "businessId": 1451884,
    "addressExtra": null
  },
  {
    "id": 3362865,
    "identifier": "10149",
    "googlePlaceId": "ChIJxaBWfFMDdkgRCFeRIGGTE3M",
    "lat": 51.51275452,
    "lng": -0.08765949,
    "name": "Pret A Manger",
    "country": "UK",
    "city": "London",
    "province": "Greater London",
    "streetAndNumber": "14-16 Lombard Street",
    "zip": "EC3V 9AU",
    "businessId": 1451884,
    "addressExtra": "Unit 1"
  },
  {
    "id": 3362866,
    "identifier": "30",
    "googlePlaceId": "ChIJ_zYPnzQFdkgRpEeQBNyx5EM",
    "lat": 51.51364754,
    "lng": -0.15860488,
    "name": "Pret A Manger",
    "country": "UK",
    "city": "London",
    "province": "Greater London",
    "streetAndNumber": "556 Oxford Street",
    "zip": "W1C 1LZ",
    "businessId": 1451884,
    "addressExtra": null
  },
  {
    "id": 3362869,
    "identifier": "43",
    "googlePlaceId": "ChIJnY8viQwPdkgR6XjRzS16nrc",
    "lat": 51.50079688,
    "lng": -0.19265253,
    "name": "Pret A Manger",
    "country": "UK",
    "city": "London",
    "province": "Greater London",
    "streetAndNumber": "Kensington High Street",
    "zip": "W8 5SF",
    "businessId": 1451884,
    "addressExtra": "Arcade, Unit 14"
  },
  {
    "id": 3362870,
    "identifier": "10240",
    "googlePlaceId": "ChIJd_iCWdoPdkgRQn8V_Lk8-mk",
    "lat": 51.50749237,
    "lng": -0.2212054,
    "name": "Pret A Manger",
    "country": "UK",
    "city": "London",
    "province": "Greater London",
    "streetAndNumber": "Ariel Way",
    "zip": "W12 7GR",
    "businessId": 1451884,
    "addressExtra": "Westfield, Mall South, Unit 2033, Level 50"
  },
  {
    "id": 3362872,
    "identifier": "10248",
    "googlePlaceId": "ChIJKS3bwyobdkgRGaZVx4fKz80",
    "lat": 51.5163649,
    "lng": -0.138999,
    "name": "Pret A Manger",
    "country": "UK",
    "city": "London",
    "province": "Greater London",
    "streetAndNumber": "49 Eastcastle Street",
    "zip": "W1W 8DZ",
    "businessId": 1451884,
    "addressExtra": null
  },
  {
    "id": 3362877,
    "identifier": "10253",
    "googlePlaceId": "ChIJW2PvnysFdkgRoxmUGXvcaJQ",
    "lat": 51.51229638,
    "lng": -0.145394,
    "name": "Pret A Manger",
    "country": "UK",
    "city": "London",
    "province": "Greater London",
    "streetAndNumber": "32 Avery Row",
    "zip": "W1K 4BE",
    "businessId": 1451884,
    "addressExtra": null
  },
  {
    "id": 3362892,
    "identifier": "10354",
    "googlePlaceId": "ChIJGf-gr94EdkgRWo87CPxoRRg",
    "lat": 51.49868944,
    "lng": -0.13596343,
    "name": "Pret A Manger",
    "country": "UK",
    "city": "London",
    "province": "Greater London",
    "streetAndNumber": "14-24 Caxton Street",
    "zip": "SW1H 0QU",
    "businessId": 1451884,
    "addressExtra": null
  },
  {
    "id": 3362895,
    "identifier": "10197",
    "googlePlaceId": "ChIJk2S3rSUbdkgR-xuhq-kfp_c",
    "lat": 51.528334,
    "lng": -0.1275658,
    "name": "Pret A Manger",
    "country": "UK",
    "city": "London",
    "province": "Greater London",
    "streetAndNumber": "Euston Station",
    "zip": "NW1 2SX",
    "businessId": 1451884,
    "addressExtra": "P1"
  },
  {
    "id": 3362902,
    "identifier": "10369",
    "googlePlaceId": "ChIJv9zKgE8DdkgRSmR4znRC13g",
    "lat": 51.5108879,
    "lng": -0.0844184,
    "name": "Pret A Manger",
    "country": "UK",
    "city": "London",
    "province": "Greater London",
    "streetAndNumber": "19 Eastcheap",
    "zip": "EC3M 1BU",
    "businessId": 1451884,
    "addressExtra": null
  },
  {
    "id": 3362908,
    "identifier": "14",
    "googlePlaceId": "ChIJqxC-atUadkgR8FEQLVamAQo",
    "lat": 51.516306,
    "lng": -0.1420877,
    "name": "Pret A Manger",
    "country": "UK",
    "city": "London",
    "province": "Greater London",
    "streetAndNumber": "298 Regent Street",
    "zip": "W1B 3AP",
    "businessId": 1451884,
    "addressExtra": null
  },
  {
    "id": 3362912,
    "identifier": "10374",
    "googlePlaceId": "ChIJv9zKgE8DdkgRgQSRYfoT7Js",
    "lat": 51.502713,
    "lng": -0.09191,
    "name": "Pret A Manger",
    "country": "UK",
    "city": "London",
    "province": "Greater London",
    "streetAndNumber": "167 Borough High Street",
    "zip": "SE1 1HR",
    "businessId": 1451884,
    "addressExtra": null
  },
  {
    "id": 3362918,
    "identifier": "10375",
    "googlePlaceId": "ChIJIXLNAM0adkgR3dm2CWqQ9hU",
    "lat": 51.5176734,
    "lng": -0.1551687,
    "name": "Pret A Manger",
    "country": "UK",
    "city": "London",
    "province": "Greater London",
    "streetAndNumber": "20 Baker Street",
    "zip": "W1U 3BY",
    "businessId": 1451884,
    "addressExtra": null
  },
  {
    "id": 3362926,
    "identifier": "41",
    "googlePlaceId": "ChIJKwBkYXcPdkgRLVkpvkQFYBM",
    "lat": 51.49307,
    "lng": -0.22559,
    "name": "Pret A Manger",
    "country": "UK",
    "city": "London",
    "province": "Greater London",
    "streetAndNumber": "8-10 King Street",
    "zip": "W6 0QA",
    "businessId": 1451884,
    "addressExtra": "Hammersmith"
  },
  {
    "id": 3362933,
    "identifier": "120",
    "googlePlaceId": "ChIJn02Ng9sEdkgRxFrkfZDwJO0",
    "lat": 51.4996039,
    "lng": -0.1325016,
    "name": "Pret A Manger",
    "country": "UK",
    "city": "London",
    "province": "Greater London",
    "streetAndNumber": "49 Tothill Street",
    "zip": "SW1H 9LQ",
    "businessId": 1451884,
    "addressExtra": null
  },
  {
    "id": 3362934,
    "identifier": "10475",
    "googlePlaceId": "ChIJu85TjbccdkgRYuEaCoQujJE",
    "lat": 51.5249789,
    "lng": -0.0718784,
    "name": "Pret A Manger",
    "country": "UK",
    "city": "London",
    "province": "Greater London",
    "streetAndNumber": "121 Bethnal Green Road",
    "zip": "E2 7DG",
    "businessId": 1451884,
    "addressExtra": null
  },
  {
    "id": 3362935,
    "identifier": "124",
    "googlePlaceId": "ChIJGcZt9w0PdkgRy1nMYYQk9N8",
    "lat": 51.46239,
    "lng": -0.21622,
    "name": "Pret A Manger",
    "country": "UK",
    "city": "London",
    "province": "Greater London",
    "streetAndNumber": "121 Putney High Street",
    "zip": "SW15 1SU",
    "businessId": 1451884,
    "addressExtra": null
  },
  {
    "id": 3362941,
    "identifier": "10236",
    "googlePlaceId": "ChIJ7TQei-4EdkgRo1pVuLVP8Bs",
    "lat": 51.48625,
    "lng": -0.12483,
    "name": "Pret A Manger",
    "country": "UK",
    "city": "London",
    "province": "Greater London",
    "streetAndNumber": "21 Saint George Wharf",
    "zip": "SW8 2JW",
    "businessId": 1451884,
    "addressExtra": "Vauxhall"
  },
  {
    "id": 3362943,
    "identifier": "10470",
    "googlePlaceId": "ChIJL9s3tq8EdkgRhxwOZu2b0QY",
    "lat": 51.506604,
    "lng": -0.1040824,
    "name": "Pret A Manger",
    "country": "UK",
    "city": "London",
    "province": "Greater London",
    "streetAndNumber": "240 Blackfriars Road",
    "zip": "SE1 8NW",
    "businessId": 1451884,
    "addressExtra": null
  },
  {
    "id": 3362945,
    "identifier": "282",
    "googlePlaceId": "ChIJyeVDLtIEdkgRHPekh3mD0Dg",
    "lat": 51.5102973,
    "lng": -0.1316134,
    "name": "Pret A Manger",
    "country": "UK",
    "city": "London",
    "province": "Greater London",
    "streetAndNumber": "39 Coventry Street",
    "zip": "W1D 6BZ",
    "businessId": 1451884,
    "addressExtra": null
  },
  {
    "id": 3362946,
    "identifier": "250",
    "googlePlaceId": "ChIJ_ZAFYVADdkgRZT_7g7zFkqA",
    "lat": 51.5055593,
    "lng": -0.08499506,
    "name": "Pret A Manger",
    "country": "UK",
    "city": "London",
    "province": "Greater London",
    "streetAndNumber": "47-49 Tooley Street",
    "zip": "SE1 2QN",
    "businessId": 1451884,
    "addressExtra": null
  },
  {
    "id": 3362947,
    "identifier": "252",
    "googlePlaceId": "ChIJY7uxr64cdkgR9BGiWGcDAF0",
    "lat": 51.5207044,
    "lng": -0.0875261,
    "name": "Pret A Manger",
    "country": "UK",
    "city": "London",
    "province": "Greater London",
    "streetAndNumber": "1 Finsbury Square",
    "zip": "EC2A 1AE",
    "businessId": 1451884,
    "addressExtra": "Unit 2"
  },
  {
    "id": 3362953,
    "identifier": "87",
    "googlePlaceId": "ChIJj73HI1cbdkgRwhavtrbPqm4",
    "lat": 51.5231115,
    "lng": -0.0985752,
    "name": "Pret A Manger",
    "country": "UK",
    "city": "London",
    "province": "Greater London",
    "streetAndNumber": "9/10 Goswell Road",
    "zip": "EC1M 7AN",
    "businessId": 1451884,
    "addressExtra": "Charterhouse Buildings"
  },
  {
    "id": 3362955,
    "identifier": "51",
    "googlePlaceId": "ChIJk9krn1UDdkgRm-gSFUrBIQ8",
    "lat": 51.5119992,
    "lng": -0.0925261,
    "name": "Pret A Manger",
    "country": "UK",
    "city": "London",
    "province": "Greater London",
    "streetAndNumber": "52-54 Cannon Street",
    "zip": "EC4N 6LY",
    "businessId": 1451884,
    "addressExtra": null
  },
  {
    "id": 3362957,
    "identifier": "10593",
    "googlePlaceId": "ChIJE676H1IbdkgRHj_aF6ImSp8",
    "lat": 51.52022976,
    "lng": -0.10464827,
    "name": "Pret A Manger",
    "country": "UK",
    "city": "London",
    "province": "Greater London",
    "streetAndNumber": "36-38 Cowcross Street",
    "zip": "EC1M 6BY",
    "businessId": 1451884,
    "addressExtra": null
  },
  {
    "id": 3362960,
    "identifier": "278",
    "googlePlaceId": "ChIJpz5YUasEdkgR7uoSc8trKbk",
    "lat": 51.51520101,
    "lng": -0.09907372,
    "name": "Pret A Manger",
    "country": "UK",
    "city": "London",
    "province": "Greater London",
    "streetAndNumber": "10 Paternoster Square",
    "zip": "EC4M 7DY",
    "businessId": 1451884,
    "addressExtra": "Unit 1"
  },
  {
    "id": 3362961,
    "identifier": "10595",
    "googlePlaceId": "ChIJQeu76SwbdkgRG8qLfRo3Y80",
    "lat": 51.5168322,
    "lng": -0.1330828,
    "name": "Pret A Manger",
    "country": "UK",
    "city": "London",
    "province": "Greater London",
    "streetAndNumber": "7-8 Rathbone Place",
    "zip": "W1T 1HN",
    "businessId": 1451884,
    "addressExtra": null
  },
  {
    "id": 3362962,
    "identifier": "117",
    "googlePlaceId": "ChIJLRAXYykFdkgR52YTXGm4mbg",
    "lat": 51.50950978,
    "lng": -0.1445307,
    "name": "Pret A Manger",
    "country": "UK",
    "city": "London",
    "province": "Greater London",
    "streetAndNumber": "7 Berkeley Square",
    "zip": "W1J 6ES",
    "businessId": 1451884,
    "addressExtra": null
  },
  {
    "id": 3362965,
    "identifier": "68",
    "googlePlaceId": "ChIJBbfjh40DdkgRAWpc6RoLD0U",
    "lat": 51.505973,
    "lng": -0.0272556,
    "name": "Pret A Manger",
    "country": "UK",
    "city": "London",
    "province": "Greater London",
    "streetAndNumber": "7 Westferry Circus",
    "zip": "E14 4HD",
    "businessId": 1451884,
    "addressExtra": "Unit B2.S.50"
  },
  {
    "id": 3362967,
    "identifier": "10159",
    "googlePlaceId": "ChIJm7E_cU0DdkgRXgGmL9hSBOU",
    "lat": 51.51293351,
    "lng": -0.08140526,
    "name": "Pret A Manger",
    "country": "UK",
    "city": "London",
    "province": "Greater London",
    "streetAndNumber": "28 Fenchurch Avenue",
    "zip": "EC3M 5AD",
    "businessId": 1451884,
    "addressExtra": null
  },
  {
    "id": 3362973,
    "identifier": "10323",
    "googlePlaceId": "ChIJXfrI2VMbdkgRs_F1kMfuu88",
    "lat": 51.5245722,
    "lng": -0.1030966,
    "name": "Pret A Manger",
    "country": "UK",
    "city": "London",
    "province": "Greater London",
    "streetAndNumber": "182 Saint John Street",
    "zip": "EC1V 4JZ",
    "businessId": 1451884,
    "addressExtra": null
  },
  {
    "id": 3362974,
    "identifier": "10191",
    "googlePlaceId": "ChIJ4VpJgaocdkgRhtXABluAzuk",
    "lat": 51.51712345,
    "lng": -0.0933459,
    "name": "Pret A Manger",
    "country": "UK",
    "city": "London",
    "province": "Greater London",
    "streetAndNumber": "5 Aldermanbury Square",
    "zip": "EC2V 7HR",
    "businessId": 1451884,
    "addressExtra": "Unit 2"
  },
  {
    "id": 3362977,
    "identifier": "10446",
    "googlePlaceId": "ChIJk-1HdLwCdkgRgBd28VYLug8",
    "lat": 51.49854,
    "lng": -0.01583,
    "name": "Pret A Manger",
    "country": "UK",
    "city": "London",
    "province": "Greater London",
    "streetAndNumber": "Harbour Exchange Square",
    "zip": "E14 9GE",
    "businessId": 1451884,
    "addressExtra": "Millwall Dock, Docklands, Unit CGN, 19, Island"
  },
  {
    "id": 3362983,
    "identifier": "10326",
    "googlePlaceId": "ChIJs4ZaLkMbdkgRj8YNjAa8hv8",
    "lat": 51.5310634,
    "lng": -0.1057951,
    "name": "Pret A Manger",
    "country": "UK",
    "city": "London",
    "province": "Greater London",
    "streetAndNumber": "402 Saint John Street",
    "zip": "EC1V 4NJ",
    "businessId": 1451884,
    "addressExtra": null
  },
  {
    "id": 3362987,
    "identifier": "10291",
    "googlePlaceId": "ChIJ7_INYEsDdkgRdKYUn1yKTHU",
    "lat": 51.5137929,
    "lng": -0.0732797,
    "name": "Pret A Manger",
    "country": "UK",
    "city": "London",
    "province": "Greater London",
    "streetAndNumber": "21 Mansell Street",
    "zip": "E1 8AA",
    "businessId": 1451884,
    "addressExtra": null
  },
  {
    "id": 3362990,
    "identifier": "10477",
    "googlePlaceId": "ChIJbTi8UVQDdkgRi2eSap_J3Uk",
    "lat": 51.5118373,
    "lng": -0.0904335,
    "name": "Pret A Manger",
    "country": "UK",
    "city": "London",
    "province": "Greater London",
    "streetAndNumber": "95 Cannon Street",
    "zip": "EC4N 5AE",
    "businessId": 1451884,
    "addressExtra": "The Walbrook Building"
  },
  {
    "id": 3362992,
    "identifier": "10174",
    "googlePlaceId": "ChIJm0ZD2bkCdkgRomR-H0Q0myw",
    "lat": 51.5051589,
    "lng": -0.0201856,
    "name": "Pret A Manger",
    "country": "UK",
    "city": "London",
    "province": "Greater London",
    "streetAndNumber": "1 Canada Square",
    "zip": "E14 4QS",
    "businessId": 1451884,
    "addressExtra": "Canary Wharf, Ds7"
  },
  {
    "id": 3362995,
    "identifier": "10290",
    "googlePlaceId": "ChIJEczp0WMddkgR0E-MLMTWttA",
    "lat": 51.543251,
    "lng": -0.007338,
    "name": "Pret A Manger",
    "country": "UK",
    "city": "London",
    "province": "Greater London",
    "streetAndNumber": "Westfield Avenue",
    "zip": "E20 1ES",
    "businessId": 1451884,
    "addressExtra": "Stratford City, Su 2054, 202 The Gallery"
  },
  {
    "id": 3362996,
    "identifier": "10552",
    "googlePlaceId": "ChIJoRdT2dIEdkgRffqtefL9cfY",
    "lat": 51.5126935,
    "lng": -0.1310827,
    "name": "Pret A Manger",
    "country": "UK",
    "city": "London",
    "province": "Greater London",
    "streetAndNumber": "35 Frith Street",
    "zip": "W1D 5LQ",
    "businessId": 1451884,
    "addressExtra": null
  },
  {
    "id": 3362998,
    "identifier": "10321",
    "googlePlaceId": "ChIJiYD0MrMcdkgR07hTggf0zPk",
    "lat": 51.4920426,
    "lng": -0.1930876,
    "name": "Pret A Manger",
    "country": "UK",
    "city": "London",
    "province": "Greater London",
    "streetAndNumber": "230-232 Earls Court Road",
    "zip": "SW5 9RD",
    "businessId": 1451884,
    "addressExtra": null
  },
  {
    "id": 3363004,
    "identifier": "195",
    "googlePlaceId": "ChIJ3UuKkLkCdkgRXmt0e2beI40",
    "lat": 51.5030777,
    "lng": -0.0182551,
    "name": "Pret A Manger",
    "country": "UK",
    "city": "London",
    "province": "Greater London",
    "streetAndNumber": "Bank Street",
    "zip": "E14 5NY",
    "businessId": 1451884,
    "addressExtra": "Unit 13, RT3, Canary Wharf"
  },
  {
    "id": 3363016,
    "identifier": "10790",
    "googlePlaceId": "ChIJEczp0WMddkgR0E-MLMTWttA",
    "lat": 51.543369,
    "lng": -0.00413,
    "name": "Pret A Manger",
    "country": "UK",
    "city": "London",
    "province": "Greater London",
    "streetAndNumber": "1 Stratford Place",
    "zip": "E20 1EJ",
    "businessId": 1451884,
    "addressExtra": "Westfield Stratford City, Unit SU37A-M6, Stratford Place 1"
  },
  {
    "id": 3363019,
    "identifier": "10820",
    "googlePlaceId": "ChIJFVuD3E0FdkgRXFFhjgLEDcg",
    "lat": 51.46209,
    "lng": -0.13791,
    "name": "Pret A Manger",
    "country": "UK",
    "city": "London",
    "province": "Greater London",
    "streetAndNumber": "1 The Pavement",
    "zip": "SW4 0HY",
    "businessId": 1451884,
    "addressExtra": "Clapham Town"
  },
  {
    "id": 3363021,
    "identifier": "10832",
    "googlePlaceId": "ChIJ2fr_dEsZdkgRCkIfy5cL0b8",
    "lat": 51.63386556050822,
    "lng": -0.13301843064253938,
    "name": "Pret A Manger",
    "country": "UK",
    "city": "London",
    "province": "Greater London",
    "streetAndNumber": "99 Chase Side",
    "zip": "N14 5BU",
    "businessId": 1451884,
    "addressExtra": "Southgate"
  },
  {
    "id": 3363024,
    "identifier": "10848",
    "googlePlaceId": "ChIJbdeXB0MbdkgRNkOP7XBolb8",
    "lat": 51.54803,
    "lng": -0.16075,
    "name": "Pret A Manger",
    "country": "UK",
    "city": "London",
    "province": "Greater London",
    "streetAndNumber": "192 Haverstock Hill",
    "zip": "NW3 2AJ",
    "businessId": 1451884,
    "addressExtra": null
  },
  {
    "id": 3363025,
    "identifier": "10802",
    "googlePlaceId": "ChIJe2KkDqUFdkgRx-hy1Ud3jLs",
    "lat": 51.50907835,
    "lng": -0.13740609,
    "name": "Pret A Manger",
    "country": "UK",
    "city": "London",
    "province": "Greater London",
    "streetAndNumber": "Piccadilly",
    "zip": "W1J 0DP",
    "businessId": 1451884,
    "addressExtra": null
  },
  {
    "id": 3363028,
    "identifier": "10842",
    "googlePlaceId": "ChIJBTgwBEIDdkgRjr52lfhTBIs",
    "lat": 51.4818227,
    "lng": -0.010761,
    "name": "Pret A Manger",
    "country": "UK",
    "city": "London",
    "province": "Greater London",
    "streetAndNumber": "Creek Road",
    "zip": "SE10 9EJ",
    "businessId": 1451884,
    "addressExtra": "Unit SU5 Crescent Arcade, Cutty Sark"
  },
  {
    "id": 3363030,
    "identifier": "10852",
    "googlePlaceId": "ChIJd6AbOywFdkgRn2R6de2IDSY",
    "lat": 51.44485,
    "lng": -0.1516,
    "name": "Pret A Manger",
    "country": "UK",
    "city": "London",
    "province": "Greater London",
    "streetAndNumber": "200 Balham High Road",
    "zip": "SW12 9DH",
    "businessId": 1451884,
    "addressExtra": null
  },
  {
    "id": 3363031,
    "identifier": "10855",
    "googlePlaceId": "ChIJd9F7rRAbdkgR3WWompgh1w0",
    "lat": 51.52560583,
    "lng": -0.17899788,
    "name": "Pret A Manger",
    "country": "UK",
    "city": "London",
    "province": "Greater London",
    "streetAndNumber": "13 Clifton Road",
    "zip": "W9 1SZ",
    "businessId": 1451884,
    "addressExtra": null
  },
  {
    "id": 3363033,
    "identifier": "10847",
    "googlePlaceId": "ChIJk2S3rSUbdkgR-xuhq-kfp_c",
    "lat": 51.528664,
    "lng": -0.133296,
    "name": "Pret A Manger",
    "country": "UK",
    "city": "London",
    "province": "Greater London",
    "streetAndNumber": "Eversholt Street",
    "zip": "NW1 2RT",
    "businessId": 1451884,
    "addressExtra": "Unit 4 The Piazza, Euston Piazza"
  },
  {
    "id": 3363037,
    "identifier": "10859",
    "googlePlaceId": "ChIJJ1uxWxCn2EcR1n05NnSuCfU",
    "lat": 51.51492443,
    "lng": 0.00923386,
    "name": "Pret A Manger",
    "country": "UK",
    "city": "London",
    "province": "Greater London",
    "streetAndNumber": "Bothwell Close",
    "zip": "E16 1QT",
    "businessId": 1451884,
    "addressExtra": "Unit C01, Hallsville Quarter"
  },
  {
    "id": 3363041,
    "identifier": "10841",
    "googlePlaceId": "ChIJy7I4rbEEdkgRujW-okIbjKk",
    "lat": 51.5037078,
    "lng": -0.1163002,
    "name": "Pret A Manger",
    "country": "UK",
    "city": "London",
    "province": "Greater London",
    "streetAndNumber": "York Road",
    "zip": "SE1 7NA",
    "businessId": 1451884,
    "addressExtra": "Unit 2B, Southbank Place"
  },
  {
    "id": 3363045,
    "identifier": "10870",
    "googlePlaceId": "ChIJXS5yqtYFdkgR1fzbZlTj2MM",
    "lat": 51.4727035,
    "lng": -0.1225105,
    "name": "Pret A Manger",
    "country": "UK",
    "city": "London",
    "province": "Greater London",
    "streetAndNumber": "356-358 South Lambeth Road",
    "zip": "SW8 1UG",
    "businessId": 1451884,
    "addressExtra": null
  },
  {
    "id": 3363047,
    "identifier": "10887",
    "googlePlaceId": "ChIJo71-mL0LdkgRNupPmVRHWXw",
    "lat": 51.5006881,
    "lng": -0.1860604,
    "name": "Pret A Manger",
    "country": "UK",
    "city": "London",
    "province": "Greater London",
    "streetAndNumber": "8 Victoria Road",
    "zip": "KT6 4JL",
    "businessId": 1451884,
    "addressExtra": null
  },
  {
    "id": 3363052,
    "identifier": "10824",
    "googlePlaceId": "ChIJv9zKgE8DdkgRM99ijeRaOZM",
    "lat": 51.5187,
    "lng": -0.0827,
    "name": "Pret A Manger",
    "country": "UK",
    "city": "London",
    "province": "Greater London",
    "streetAndNumber": "100 Liverpool Street",
    "zip": "EC2M 2RH",
    "businessId": 1451884,
    "addressExtra": "Unit LG4"
  },
  {
    "id": 3363053,
    "identifier": "10883",
    "googlePlaceId": "ChIJVypsqu4ddkgR_-MQ84ajcD8",
    "lat": 51.56155553,
    "lng": -0.07346572,
    "name": "Pret A Manger",
    "country": "UK",
    "city": "London",
    "province": "Greater London",
    "streetAndNumber": "172 Stoke Newington High Street",
    "zip": "N16 0PE",
    "businessId": 1451884,
    "addressExtra": null
  },
  {
    "id": 3494705,
    "identifier": "10897",
    "googlePlaceId": "ChIJwcZY_6gbdkgRjp9R00KsMdk",
    "lat": 51.51781,
    "lng": -0.13127,
    "name": "Pret A Manger",
    "country": "UK",
    "city": "London",
    "province": "Greater London",
    "streetAndNumber": "252 Tottenham Court Road",
    "zip": "W1T 7RB",
    "businessId": 1451884,
    "addressExtra": null
  },
  {
    "id": 3500436,
    "identifier": "10896",
    "googlePlaceId": "ChIJ0clQmuQFdkgRVXy-JzYpVbk",
    "lat": 51.4823811,
    "lng": -0.1444907,
    "name": "Pret A Manger",
    "country": "UK",
    "city": "London",
    "province": "Greater London",
    "streetAndNumber": "Circus Rd W",
    "zip": "SW8 5BN",
    "businessId": 1451884,
    "addressExtra": "Power Station, Battersea, Turbine Hall B"
  },
  {
    "id": 3501375,
    "identifier": "10913",
    "googlePlaceId": "ChIJu20x1F0PdkgRn_UTAjOdNRc",
    "lat": 51.4928524,
    "lng": -0.2623105,
    "name": "Pret A Manger",
    "country": "UK",
    "city": "London",
    "province": "Greater London",
    "streetAndNumber": "336 Chiswick High Road",
    "zip": "W4 5YA",
    "businessId": 1451884,
    "addressExtra": "Building 5, Chiswick Business Park"
  },
  {
    "id": 3502021,
    "identifier": "10903",
    "googlePlaceId": "ChIJFW73wKwEdkgRR16suIecCH0",
    "lat": 51.51378,
    "lng": -0.10124,
    "name": "Pret A Manger",
    "country": "UK",
    "city": "London",
    "province": "Greater London",
    "streetAndNumber": "19-21 Ludgate Hill",
    "zip": "EC4M 7AE",
    "businessId": 1451884,
    "addressExtra": null
  },
  {
    "id": 3502467,
    "identifier": "10506",
    "googlePlaceId": "ChIJTZiffxsbdkgRvHe6zsAreeA",
    "lat": 51.5221659,
    "lng": -0.1244796,
    "name": "Pret A Manger",
    "country": "UK",
    "city": "London",
    "province": "Greater London",
    "streetAndNumber": "73 Russell Square",
    "zip": "WC1B 5BG",
    "businessId": 1451884,
    "addressExtra": null
  },
  {
    "id": 3512731,
    "identifier": "312",
    "googlePlaceId": "ChIJgXmQoyEFdkgRVy3kOIiWf98",
    "lat": 51.496379,
    "lng": -0.1422169,
    "name": "Pret A Manger",
    "country": "UK",
    "city": "London",
    "province": "Greater London",
    "streetAndNumber": "173 Victoria Street",
    "zip": "SW1E 5NA",
    "businessId": 1451884,
    "addressExtra": null
  },
  {
    "id": 3513813,
    "identifier": "10857",
    "googlePlaceId": "ChIJpd-PpF6jbUgR_X8mKCykZWE",
    "lat": 50.7165959908581,
    "lng": -3.46359359459995,
    "name": "Pret A Manger",
    "country": "UK",
    "city": "London",
    "province": "Devon",
    "streetAndNumber": "M5 Junction 30 Sandygate Exeter Devon",
    "zip": "EX2 7HF",
    "businessId": 1451884,
    "addressExtra": "Junction M5"
  },
  {
    "id": 3513819,
    "identifier": "10914",
    "googlePlaceId": "ChIJc0UEMvgPdkgRWYKI926Dow0",
    "lat": 51.4925,
    "lng": -0.26341,
    "name": "Pret A Manger",
    "country": "UK",
    "city": "London",
    "province": "Greater London",
    "streetAndNumber": "336 Chiswick High Road",
    "zip": "W4 5TL",
    "businessId": 1451884,
    "addressExtra": null
  },
  {
    "id": 3600285,
    "identifier": "10866",
    "googlePlaceId": "ChIJ40hsngLleUgRFycgTWqgXZk",
    "lat": 52.8216898590715,
    "lng": -1.30815431573782,
    "name": "Pret A Manger",
    "country": "UK",
    "city": "London",
    "province": "Leicestershire",
    "streetAndNumber": "M1 Junction 23 A Derby East Midlands",
    "zip": "DE74 2TN",
    "businessId": 1451884,
    "addressExtra": "Junction 23 A, M1"
  },
  {
    "id": 3600287,
    "identifier": "10922",
    "googlePlaceId": "ChIJiZynM0-PcUgRYnaemNckYbE",
    "lat": 51.48490260929731,
    "lng": -2.5865627018228294,
    "name": "Pret A Manger",
    "country": "UK",
    "city": "London",
    "province": "Bristol City",
    "streetAndNumber": "410-422 Gloucester Road Bristol Avon",
    "zip": "BS7 8TX",
    "businessId": 1451884,
    "addressExtra": "Avon"
  },
  {
    "id": 3600288,
    "identifier": "10891",
    "googlePlaceId": "ChIJd0AncDVvekgRCLwJuPIUDKk",
    "lat": 52.884371036112,
    "lng": -2.17054242481578,
    "name": "Pret A Manger",
    "country": "UK",
    "city": "London",
    "province": "Staffordshire",
    "streetAndNumber": "14-15 Stone",
    "zip": "ST15 0EU",
    "businessId": 1451884,
    "addressExtra": "North Junction"
  },
  {
    "id": 3600291,
    "identifier": "10892",
    "googlePlaceId": "ChIJq-ZV7GBreUgR0b964BE2pzk",
    "lat": 53.6975967091935,
    "lng": -1.26665496545494,
    "name": "Pret A Manger",
    "country": "UK",
    "city": "London",
    "province": "West Yorkshire",
    "streetAndNumber": "33 Knottingley",
    "zip": "WF11 0AF",
    "businessId": 1451884,
    "addressExtra": "A1m Junction"
  },
  {
    "id": 3600294,
    "identifier": "10940",
    "googlePlaceId": "ChIJdz8fiH0RdkgR7PAGkLBPdZU",
    "lat": 51.53594,
    "lng": -0.19107,
    "name": "Pret A Manger",
    "country": "UK",
    "city": "London",
    "province": "Greater London",
    "streetAndNumber": "101 Kilburn High Road",
    "zip": "NW6 6JE",
    "businessId": 1451884,
    "addressExtra": null
  },
  {
    "id": 3609872,
    "identifier": "10907",
    "googlePlaceId": "ChIJU8tC1SYbdkgR0A__KpchKqI",
    "lat": 51.59142,
    "lng": -0.14267,
    "name": "Pret A Manger",
    "country": "UK",
    "city": "London",
    "province": "Greater London",
    "streetAndNumber": "197 Muswell Hill Broadway",
    "zip": "N10 3RS",
    "businessId": 1451884,
    "addressExtra": null
  },
  {
    "id": 3710608,
    "identifier": "10902",
    "googlePlaceId": "ChIJl0icgwcFdkgRYXUBbFDHYlg",
    "lat": 51.46363317,
    "lng": -0.16887541,
    "name": "Pret A Manger",
    "country": "UK",
    "city": "London",
    "province": "Greater London",
    "streetAndNumber": "Saint John's Hill",
    "zip": "SW11 1SS",
    "businessId": 1451884,
    "addressExtra": "Unit 7a One Stop Shop"
  },
  {
    "id": 3762198,
    "identifier": "10920",
    "googlePlaceId": "ChIJxQQkP3YDdkgR1-F5q1EwJ2g",
    "lat": 51.45207972,
    "lng": -0.01604869,
    "name": "Pret A Manger",
    "country": "UK",
    "city": "London",
    "province": "Greater London",
    "streetAndNumber": "357-361 Lewisham High Street",
    "zip": "SE13 6NZ",
    "businessId": 1451884,
    "addressExtra": null
  },
  {
    "id": 3784938,
    "identifier": "10858",
    "googlePlaceId": "ChIJccp0ymWp2EcRQ_BsKPzGNLo",
    "lat": 51.50026158,
    "lng": 0.00344265,
    "name": "Pret A Manger",
    "country": "UK",
    "city": "London",
    "province": "Greater London",
    "streetAndNumber": "5 Millennium Way",
    "zip": "SE10 0PH",
    "businessId": 1451884,
    "addressExtra": null
  },
  {
    "id": 3922884,
    "identifier": "10980",
    "googlePlaceId": "ChIJ4woYl10ddkgRgUiYKpGYLh4",
    "lat": 51.58707666,
    "lng": -0.06357376,
    "name": "Pret A Manger",
    "country": "UK",
    "city": "London",
    "province": "Greater London",
    "streetAndNumber": "Broad Lane",
    "zip": "N15 4QT",
    "businessId": 1451884,
    "addressExtra": null
  },
  {
    "id": 4224357,
    "identifier": "11067",
    "googlePlaceId": "ChIJh2FOFyxxdkgRsvN5tBZTozQ",
    "lat": 51.43467,
    "lng": -0.51096,
    "name": "Pret A Manger",
    "country": "UK",
    "city": "London",
    "province": "Surrey",
    "streetAndNumber": "Unit SUK2 Two Rivers Shopping Centre",
    "zip": "TW18 4UP",
    "businessId": 1451884,
    "addressExtra": null
  },
  {
    "id": 4225383,
    "identifier": "11068",
    "googlePlaceId": "ChIJ0SaIrKmv2EcRVMQaXTper9s",
    "lat": 51.492875,
    "lng": 0.121503,
    "name": "Pret A Manger",
    "country": "UK",
    "city": "London",
    "province": "Greater London",
    "streetAndNumber": "84-89 Harrow Manorway",
    "zip": "SE2 9SA",
    "businessId": 1451884,
    "addressExtra": "BP Thamesmead Service Station, Way Abbeywood"
  },
  {
    "id": 4319214,
    "identifier": "11096",
    "googlePlaceId": null,
    "lat": 52.64297,
    "lng": -2.05768,
    "name": "Pret A Manger",
    "country": "UK",
    "city": "London",
    "province": "Staffordshire",
    "streetAndNumber": "Essington wolverhampton staffordshire",
    "zip": "WV11 2AT",
    "businessId": 1451884,
    "addressExtra": null
  },
  {
    "id": 4319215,
    "identifier": "11095",
    "googlePlaceId": null,
    "lat": 51.30438,
    "lng": -0.40567,
    "name": "Pret A Manger",
    "country": "UK",
    "city": "London",
    "province": "Surrey",
    "streetAndNumber": "cobham extra motorway services downside cobham",
    "zip": "KT11 3DB",
    "businessId": 1451884,
    "addressExtra": null
  },
  {
    "id": 4385947,
    "identifier": "11113",
    "googlePlaceId": "ChIJQ7scHQARdkgREJHdSpXToDI",
    "lat": 51.547242706853,
    "lng": -0.190931838956602,
    "name": "Pret A Manger",
    "country": "UK",
    "city": "London",
    "province": "Greater London",
    "streetAndNumber": "130 West End Lane",
    "zip": "NW6 1SA",
    "businessId": 1451884,
    "addressExtra": null
  },
  {
    "id": 4393688,
    "identifier": "209876",
    "googlePlaceId": "ChIJ4woYl10ddkgRgUiYKpGYLh4",
    "lat": 51.58692,
    "lng": -0.0635134,
    "name": "Pret a Manger",
    "country": "UK",
    "city": "London",
    "province": "London",
    "streetAndNumber": "Broad Lane",
    "zip": "N15 4QT",
    "businessId": 1451884,
    "addressExtra": "Unit F, Tottenham Hale Retail Park"
  },
  {
    "id": 4487870,
    "identifier": "11092",
    "googlePlaceId": "ChIJkymGZwAbdkgRiG0oyxI8XCc",
    "lat": 51.5652376989531,
    "lng": -0.108083676352313,
    "name": "Pret A Manger",
    "country": "UK",
    "city": "London",
    "province": "Greater London",
    "streetAndNumber": "9-10 Wells Terrace",
    "zip": "N43JU",
    "businessId": 1451884,
    "addressExtra": null
  },
  {
    "id": 4538053,
    "identifier": "11152",
    "googlePlaceId": "ChIJ38DGRwARdkgRT40t2JXIY2M",
    "lat": 51.5720242195573,
    "lng": -0.195881234055207,
    "name": "Pret A Manger",
    "country": "UK",
    "city": "London",
    "province": "Greater London",
    "streetAndNumber": "2 Golders Green Rd",
    "zip": "NW11 8LH",
    "businessId": 1451884,
    "addressExtra": null
  },
  {
    "id": 4556138,
    "identifier": "11159",
    "googlePlaceId": "ChIJb0sAdQAPdkgRwE07n0riE5g",
    "lat": 51.47533587,
    "lng": -0.20061257,
    "name": "Pret A Manger",
    "country": "UK",
    "city": "London",
    "province": "Greater London",
    "streetAndNumber": "45/47 Parsons Green Lane",
    "zip": "SW6 4HH",
    "businessId": 1451884,
    "addressExtra": null
  },
  {
    "id": 4584220,
    "identifier": "11165",
    "googlePlaceId": "ChIJhbsCAgADdkgRwI8sd3VR3Jw",
    "lat": 51.46464,
    "lng": -0.013,
    "name": "Pret A Manger",
    "country": "UK",
    "city": "London",
    "province": "Greater London",
    "streetAndNumber": "Station Road",
    "zip": "SE13 5FQ",
    "businessId": 1451884,
    "addressExtra": "Unit A2, River Mill2, Lewisham"
  },
  {
    "id": 4625697,
    "identifier": "11176",
    "googlePlaceId": "ChIJTXmOPvUNdkgRWIFDmlL8zWY",
    "lat": 51.51294,
    "lng": -0.30506,
    "name": "Pret A Manger",
    "country": "UK",
    "city": "London",
    "province": "Greater London",
    "streetAndNumber": "45 High St,London",
    "zip": "W5 5AW",
    "businessId": 1451884,
    "addressExtra": null
  },
  {
    "id": 4651577,
    "identifier": "11181",
    "googlePlaceId": "ChIJO9e74-cQdkgRzrDXr-UXN84",
    "lat": 51.577256,
    "lng": -0.224183,
    "name": "Pret A Manger",
    "country": "UK",
    "city": "London",
    "province": "Greater London",
    "streetAndNumber": "Prince Charles Drive",
    "zip": "NW4 3FB",
    "businessId": 1451884,
    "addressExtra": "Unit R2, Brent Cross Shopping Centre"
  },
  {
    "id": 4805006,
    "identifier": "11214",
    "googlePlaceId": "ChIJTaw6tKgxeUgR3QZxAqaVP9M",
    "lat": 53.9591926,
    "lng": -1.0811166,
    "name": "Pret A Manger",
    "country": "UK",
    "city": "London",
    "province": "York",
    "streetAndNumber": "33 Parliament Street",
    "zip": "YO1 8RU",
    "businessId": 1451884,
    "addressExtra": null
  },
  {
    "id": 4814956,
    "identifier": "11215",
    "googlePlaceId": "ChIJl1JijbIcdkgRolHogJRrkxs",
    "lat": 51.5198609,
    "lng": -0.09782261,
    "name": "Pret A Manger",
    "country": "UK",
    "city": "London",
    "province": "Greater London",
    "streetAndNumber": "140 Aldersgate Street",
    "zip": "EC1A 4HY",
    "businessId": 1451884,
    "addressExtra": null
  },
  {
    "id": 4869611,
    "identifier": "11218",
    "googlePlaceId": "ChIJUUPWV14ddkgRZnpgwETuRog",
    "lat": 51.546393,
    "lng": -0.055069,
    "name": "Pret A Manger",
    "country": "UK",
    "city": "London",
    "province": "Greater London",
    "streetAndNumber": "Amhurst Road",
    "zip": "E8 1JB",
    "businessId": 1451884,
    "addressExtra": "Pret Hackney"
  },
  {
    "id": 5007421,
    "identifier": "11225",
    "googlePlaceId": "ChIJ80qyMgCNdUgRrC_eARkybDI",
    "lat": 50.9578210058115,
    "lng": -0.139219654339451,
    "name": "Pret A Manger",
    "country": "UK",
    "city": "London",
    "province": "West Sussex",
    "streetAndNumber": "173 London Road",
    "zip": "RH15 8LJ",
    "businessId": 1451884,
    "addressExtra": "Shell Burgess Hill"
  },
  {
    "id": 5038360,
    "identifier": "11230",
    "googlePlaceId": "ChIJIQIm7qQJdkgRgzeStM4diO8",
    "lat": 51.4210612,
    "lng": -0.206539,
    "name": "Pret A Manger",
    "country": "UK",
    "city": "London",
    "province": "Greater London",
    "streetAndNumber": "21 Wimbledon Bridge",
    "zip": "SW19 7NH",
    "businessId": 1451884,
    "addressExtra": null
  },
  {
    "id": 5126299,
    "identifier": "11234",
    "googlePlaceId": "ChIJcU4bay8_dkgR1fldVD-X9JQ",
    "lat": 51.751688,
    "lng": -0.313178,
    "name": "Pret A Manger",
    "country": "UK",
    "city": "London",
    "province": "Hertfordshire",
    "streetAndNumber": "Hatfield Road",
    "zip": "AL1 4LW",
    "businessId": 1451884,
    "addressExtra": "Morrisons St Albans Service Station"
  },
  {
    "id": 5209483,
    "identifier": "11240",
    "googlePlaceId": null,
    "lat": 51.49949760960905,
    "lng": -0.17805464482421263,
    "name": "Pret A Manger",
    "country": "UK",
    "city": "London",
    "province": "Greater London",
    "streetAndNumber": "180 Queen's Gate",
    "zip": "SW7 2AZ",
    "businessId": 1451884,
    "addressExtra": "South Kensington"
  },
  {
    "id": 5233853,
    "identifier": "11237",
    "googlePlaceId": "ChIJuU_ybABhfkgRH36ekHsW1gM",
    "lat": 54.815043,
    "lng": -1.3735886,
    "name": "Pret A Manger",
    "country": "UK",
    "city": "London",
    "province": "County Durham",
    "streetAndNumber": "Church Street",
    "zip": "SR7 9HU",
    "businessId": 1451884,
    "addressExtra": "Morrisons Dalton Park Service Station"
  },
  {
    "id": 5295213,
    "identifier": "11238",
    "googlePlaceId": "ChIJtbD9ewAZdkgR0fNqFeGxyFY",
    "lat": 51.629753,
    "lng": -0.096905,
    "name": "Pret A Manger",
    "country": "UK",
    "city": "London",
    "province": "Greater London",
    "streetAndNumber": "Green Lanes",
    "zip": "N21 3RL",
    "businessId": 1451884,
    "addressExtra": "Esso Highfields Service Station"
  }
]